stamp,yaw_mean,pitch_mean,roll_mean,rotation_rate_x_mean,rotation_rate_y_mean,rotation_rate_z_mean,user_acceleration_x_mean,user_acceleration_y_mean,user_acceleration_z_mean,yaw_std,pitch_std,roll_std,rotation_rate_x_std,rotation_rate_y_std,rotation_rate_z_std,user_acceleration_x_std,user_acceleration_y_std,user_acceleration_z_std,rotation_magnitude_mean,acceleration_magnitude_mean,rotation_magnitude_std,acceleration_magnitude_std,speed_mean,speed_std,course_mode,course_std,distance_from_home_mean,distance_from_home_std,distance_from_home_latitude_mean,distance_from_home_latitude_std,distance_from_home_longitude_mean,distance_from_home_longitude_std,bearing_from_home_mode,bearing_from_home_std,time_of_day_radians,time_of_day_sin,time_of_day_cos,day_of_week,activity_label
2020-08-28 13:20:41.300000,-0.8583439868788069,-0.0430124942665108,1.5741440498094987,-0.0189676678533388,0.002732757083024,0.0079272623617859,-0.0020445263425442,-0.0020445263425442,0.0138235084724902,1.0356524465262422,0.1256367034491305,0.0698465163932144,0.701738167019781,0.1827993105651109,0.2759996369539253,0.0689081413914614,0.0689081413914614,0.0731459440097623,0.6179918621065177,0.1186296451828936,0.4689436814851804,0.0781630051789887,10.949424743652344,0.0,359.0,0.0,1735.7455937999,6.826892238678933e-13,0.0035625427246088,0.0,0.0221057861327977,0.0,257.0,0.0,3.490658503988659,-0.3420201433256686,-0.9396926207859084,4.0,Other
2020-08-28 13:20:42.300000,-0.8456814838348642,-0.0424638150942944,1.5746827506384318,-0.0135849092741451,0.0029238595095728,0.0079170100064715,-0.002728664884948,-0.002728664884948,0.0128367168831944,1.0450213054957571,0.1250358361131363,0.0695875996927471,0.6896049898433272,0.1814762138882706,0.2680858017814227,0.0676675948938824,0.0676675948938824,0.0719474678479168,0.6045514856342752,0.1157148074632466,0.4631665177000335,0.0778619775802184,10.949424743652344,0.0,359.0,0.0,1735.7455937999,6.826892238678933e-13,0.0035625427246088,0.0,0.0221057861327977,0.0,257.0,0.0,3.490658503988659,-0.3420201433256686,-0.9396926207859084,4.0,Other
2020-08-28 13:20:43.300000,-0.8399655510758216,-0.0433791382857875,1.575245375046119,-0.0166166263265216,0.0009474107002321,0.0075809203391234,-0.0025336773145615,-0.0025336773145615,0.0132116941663865,1.049450614398429,0.1251817846429733,0.0693127424500487,0.6872981214640864,0.1805375048313323,0.2623442166933418,0.0665363614144733,0.0665363614144733,0.0716803666178926,0.5978830065758209,0.1134621883974209,0.4648356280387881,0.0781233416466456,10.949424743652344,0.0,359.0,0.0,1735.7455937999,6.826892238678933e-13,0.0035625427246088,0.0,0.0221057861327977,0.0,257.0,0.0,3.490658503988659,-0.3420201433256686,-0.9396926207859084,4.0,Other
2020-08-28 13:20:44.300000,-0.8272704985527362,-0.0444208412119464,1.5748440427907096,-0.0180807757902636,0.0010887669459815,0.008150677425638,-0.0027114502998834,-0.0027114502998834,0.012906217485815,1.060682058606252,0.1254915086676766,0.0694012471664003,0.681606034192094,0.1798158768977331,0.2612396096616662,0.0663998911733231,0.0663998911733231,0.0706765867259761,0.5933685614372761,0.1114930750115209,0.4613987428832689,0.0784674351527037,10.949424743652344,0.0,359.0,0.0,1735.7455937999,6.826892238678933e-13,0.0035625427246088,0.0,0.0221057861327977,0.0,257.0,0.0,3.490658503988659,-0.3420201433256686,-0.9396926207859084,4.0,Other
2020-08-28 13:20:45.300000,-0.817995156960317,-0.0449624426349655,1.5756568775795858,-0.0122072443183195,0.00170283294678,0.0089479583806006,-0.0026279416139827,-0.0026279416139827,0.0129312246591596,1.0713789978481645,0.1256490049458131,0.0689261414286168,0.6808692505903298,0.1794842917340391,0.2600752576639732,0.0661663985142375,0.0661663985142375,0.0704794293793825,0.59009255377007,0.1106987973988849,0.4635509522801951,0.078997877045744,10.949424743652344,0.0,359.0,0.0,1735.7455937999,6.826892238678933e-13,0.0035625427246088,0.0,0.0221057861327977,0.0,257.0,0.0,3.490658503988659,-0.3420201433256686,-0.9396926207859084,4.0,Other
2020-08-28 13:20:46.300000,-0.8138549177203879,-0.0450463699790315,1.5758238130321915,-0.0091621493254346,0.0015511218196528,0.0087650482679954,-0.0025783754426508,-0.0025783754426508,0.0125891597516921,1.0761136217031595,0.125697206203473,0.0688330321574176,0.6808947762009788,0.1794660910670691,0.260000828556771,0.0661584315684356,0.0661584315684356,0.0704846625348914,0.5895032509948515,0.1103574687436738,0.464215877444082,0.079359653582328,10.949424743652344,0.0,359.0,0.0,1735.7455937999,6.826892238678933e-13,0.0035625427246088,0.0,0.0221057861327977,0.0,257.0,0.0,3.490658503988659,-0.3420201433256686,-0.9396926207859084,4.0,Other
2020-08-28 13:20:47.300000,-0.8105813080232633,-0.0451870521951763,1.5759379392654052,-0.010242044617315,0.0021460201543215,0.0080541311681871,-0.0026230674218417,-0.0026230674218417,0.0122710822921822,1.079886682727936,0.1257648023954098,0.0687595532712442,0.6807043835573309,0.1794109742641719,0.2599538400166093,0.0661561938241068,0.0661561938241068,0.0704842487696753,0.5882629688251324,0.1099997312111462,0.4654753945455744,0.0797525468417593,10.949424743652344,0.0,359.0,0.0,1735.7455937999,6.826892238678933e-13,0.0035625427246088,0.0,0.0221057861327977,0.0,257.0,0.0,3.490658503988659,-0.3420201433256686,-0.9396926207859084,4.0,Other
2020-08-28 13:20:48.300000,-0.80312139552068,-0.0460568350412564,1.576392941288464,-0.0180485007429058,0.0013481756430522,0.0072178283583112,-0.0025569234235512,-0.0025569234235512,0.0122281846012331,1.087478357133095,0.1260586727010828,0.0683924631949861,0.6777991452154787,0.1792523443035048,0.259644604367071,0.0661411943543408,0.0661411943543408,0.0704238410095451,0.5813680435365596,0.1094009540414967,0.4698793290079681,0.0803038258368612,10.949424743652344,0.0,359.0,0.0,1735.7455937999,6.826892238678933e-13,0.0035625427246088,0.0,0.0221057861327977,0.0,257.0,0.0,3.490658503988659,-0.3420201433256686,-0.9396926207859084,4.0,Other
2020-08-28 13:20:49.300000,-0.7870534060154104,-0.0469901358321866,1.5762623495944523,-0.0247917140225032,0.0010177903535919,0.0086427406658156,-0.0027215980650382,-0.0027215980650382,0.0115935530222196,1.0999254773744045,0.1262184622888496,0.0684466911255992,0.6737910230168139,0.1788331516342741,0.2580897100218776,0.065478865774991,0.065478865774991,0.0702658017025853,0.5722887868581636,0.1076556388321686,0.4745704761170682,0.0810803209828178,10.949424743652344,0.0,359.0,0.0,1735.7455937999,6.826892238678933e-13,0.0035625427246088,0.0,0.0221057861327977,0.0,257.0,0.0,3.490658503988659,-0.3420201433256686,-0.9396926207859084,4.0,Other
2020-08-28 13:20:50.300000,-0.7757191982479787,-0.047479628303611,1.576294013842965,-0.0140957742597839,0.0024831293975181,0.0080054446852637,-0.0027740901202806,-0.0027740901202806,0.0117801903389059,1.1096442779248248,0.1264601257074456,0.0684188923315696,0.6653347351117831,0.1780828227054155,0.2572365555364518,0.0654043129611685,0.0654043129611685,0.0697426939596028,0.5612203456891539,0.1062617941096542,0.474690020559225,0.0818326043551774,10.949424743652344,0.0,359.0,0.0,1735.7455937999,6.826892238678933e-13,0.0035625427246088,0.0,0.0221057861327977,0.0,257.0,0.0,3.490658503988659,-0.3420201433256686,-0.9396926207859084,4.0,Other
2020-08-28 13:20:51.300000,-0.7651491425032673,-0.0483221319986546,1.5758349742746591,-0.022744418233447,0.0008332964060781,0.007818104369572,-0.0026918001559728,-0.0026918001559728,0.0112782305171604,1.1189006505100465,0.1267281765826559,0.0683562086131966,0.6593858257587928,0.1772368551099719,0.2555990920324006,0.0650206295439803,0.0650206295439803,0.069654842421549,0.5504792113230815,0.1043316002064339,0.4781016095720629,0.082462700125103,10.949424743652344,0.0,359.0,0.0,1735.7455937999,6.826892238678933e-13,0.0035625427246088,0.0,0.0221057861327977,0.0,257.0,0.0,3.490658503988659,-0.3420201433256686,-0.9396926207859084,4.0,Other
2020-08-28 13:20:52.300000,-0.7502174703264841,-0.0492771421942443,1.5756471397079366,-0.0187994162885227,0.0023162091575476,0.007775865415012,-0.0026082270058141,-0.0026082270058141,0.0110410096839739,1.1301593805700003,0.1270216507928506,0.0683408803769551,0.655413863108456,0.17650596253466,0.2538417558048129,0.0649205377509978,0.0649205377509978,0.0690101417777023,0.5414162740181752,0.1024961103833143,0.4816192843446308,0.0832180351102119,10.949424743652344,0.0,359.0,0.0,1735.7455937999,6.826892238678933e-13,0.0035625427246088,0.0,0.0221057861327977,0.0,257.0,0.0,3.490658503988659,-0.3420201433256686,-0.9396926207859084,4.0,Other
2020-08-28 13:20:53.300000,-0.7329913026214687,-0.0500033271429777,1.5757803633288416,-0.0280070810434648,0.0011243988967464,0.0080379900757297,-0.0026585064493677,-0.0026585064493677,0.0105320907472175,1.1416342991622763,0.1271415134727123,0.0682572376257093,0.6506008379113637,0.1755614729697185,0.250466458889811,0.0644611112344043,0.0644611112344043,0.0686429980728035,0.5305111832482959,0.1003775959789668,0.4855689751516214,0.0838361541244712,10.949424743652344,0.0,359.0,0.0,1735.7455937999,6.826892238678933e-13,0.0035625427246088,0.0,0.0221057861327977,0.0,257.0,0.0,3.490658503988659,-0.3420201433256686,-0.9396926207859084,4.0,Other
2020-08-28 13:20:54.300000,-0.7144160978836992,-0.0510533295401878,1.575706522595664,-0.0238182466545339,0.0015147152479223,0.0077374167302576,-0.0025447666545874,-0.0025447666545874,0.0104326479347692,1.1530317294569812,0.1273656239417314,0.0682572382422493,0.6452505358414203,0.1747881378401779,0.2471549318926281,0.0639751751991323,0.0639751751991323,0.0680299426944806,0.5199272449699704,0.0982855484105091,0.4876887807147285,0.0842147659284222,10.949424743652344,0.0,359.0,0.0,1735.7455937999,6.826892238678933e-13,0.0035625427246088,0.0,0.0221057861327977,0.0,257.0,0.0,3.490658503988659,-0.3420201433256686,-0.9396926207859084,4.0,Other
2020-08-28 13:20:55.300000,-0.6887494958906175,-0.0515873552305217,1.5752770744028584,-0.0336249314245462,-0.0005601628748591,0.0068707558254365,-0.0025966237864755,-0.0025966237864755,0.0094569597684603,1.163154465059351,0.1274797149592149,0.0681852006148102,0.6368397236960756,0.172935966366314,0.2439087530887135,0.0636041760667447,0.0636041760667447,0.0669267355576583,0.50658336190208,0.0961007450207053,0.488967145034506,0.0844538804287702,10.949424743652344,0.0,359.0,0.0,1735.7455937999,6.826892238678933e-13,0.0035625427246088,0.0,0.0221057861327977,0.0,257.0,0.0,3.490658503988659,-0.3420201433256686,-0.9396926207859084,4.0,Other
2020-08-28 13:20:56.300000,-0.662140202059251,-0.0526419124048977,1.575071827742502,-0.0324410392613012,0.0006865256887468,0.0069841277214563,-0.0025609295300754,-0.0025609295300754,0.0097354754136128,1.1725273060792387,0.1276105057815936,0.0680239941917007,0.6324655493842444,0.1706174374841054,0.2386687014258081,0.063190062608726,0.063190062608726,0.0665655148852132,0.4958517566407968,0.0940125481768979,0.4908263343624525,0.0845598294039205,10.949424743652344,0.0,359.0,0.0,1735.7455937999,6.826892238678933e-13,0.0035625427246088,0.0,0.0221057861327977,0.0,257.0,0.0,3.490658503988659,-0.3420201433256686,-0.9396926207859084,4.0,Other
2020-08-28 13:20:57.300000,-0.6256009423624904,-0.053499525369116,1.5749603728089674,-0.0471876029966526,-0.001248337934336,0.0074013154415224,-0.0026470863085221,-0.0026470863085221,0.0087660829259234,1.173483881759637,0.128078949732141,0.0679841138842261,0.6174626563606973,0.1694223258489001,0.2381821516097446,0.0631295250135754,0.0631295250135754,0.0658423196794461,0.4819684570535105,0.0926170707616891,0.4861078655657589,0.0847323129310542,10.949424743652344,0.0,359.0,0.0,1735.7455937999,6.826892238678933e-13,0.0035625427246088,0.0,0.0221057861327977,0.0,257.0,0.0,3.490658503988659,-0.3420201433256686,-0.9396926207859084,4.0,Other
2020-08-28 13:20:58.300000,-0.58360040919567,-0.053657308632651,1.574724203933297,-0.0472979767049682,-0.0007247917103068,0.0067881943155142,-0.0027120360320498,-0.0027120360320498,0.0090433597663873,1.167293612132267,0.1281552554365803,0.0679330766108157,0.6172574671681164,0.1693326344979892,0.2387001626162056,0.0631219656617229,0.0631219656617229,0.0657221768347919,0.4816328079362543,0.0925940695858105,0.4864039685026398,0.0847680986640244,10.949424743652344,0.0,359.0,0.0,1735.7455937999,6.826892238678933e-13,0.0035625427246088,0.0,0.0221057861327977,0.0,257.0,0.0,3.490658503988659,-0.3420201433256686,-0.9396926207859084,4.0,Other
2020-08-28 13:20:59.300000,-0.5392016842620394,-0.0542232478420765,1.5745922580931626,-0.0503822179625861,-0.0013728916657447,0.0074865630066205,-0.0027122888311173,-0.0027122888311173,0.0092373071315879,1.1564791205874272,0.1284293278765912,0.0679547392239123,0.6173357600775496,0.1693393333206271,0.2387374757951697,0.0631261006622839,0.0631261006622839,0.0656499347027819,0.4831731657360847,0.0926280105484174,0.485314392335238,0.0847480926063889,10.949424743652344,0.0,359.0,0.0,1735.7455937999,6.826892238678933e-13,0.0035625427246088,0.0,0.0221057861327977,0.0,257.0,0.0,3.490658503988659,-0.3420201433256686,-0.9396926207859084,4.0,Other
2020-08-28 13:21:00.300000,-0.4939896685292885,-0.0543394938088593,1.574263479665988,-0.0504169435071419,-0.0014649665900529,0.0081021547369417,-0.0027443777503268,-0.0027443777503268,0.0092921938852541,1.1426847834181386,0.1284849327661066,0.0680116049230575,0.6173957049713698,0.1693418700503088,0.2387148101824151,0.0631260886133678,0.0631260886133678,0.0656449107824856,0.4834543475412782,0.0927358439985412,0.4851136379577933,0.0846603884897629,10.949424743652344,0.0,359.0,0.0,1735.7455937999,6.826892238678933e-13,0.0035625427246088,0.0,0.0221057861327977,0.0,257.0,0.0,3.4950218271186446,-0.3461170570774926,-0.9381913359224844,4.0,Other
2020-08-28 13:21:01.300000,-0.4485051131864603,-0.0543434871465016,1.5739530850567556,-0.0500709284468865,-0.0012901790320761,0.0075346169487329,-0.0028111908876161,-0.0028111908876161,0.0093738063302095,1.1267477183903112,0.1284830749891048,0.068048663891783,0.6174267652004117,0.1693306431613566,0.2387123751709292,0.0631296806043555,0.0631296806043555,0.0656238115637977,0.4832766796959437,0.092739654014684,0.4852797896238616,0.0846588090735374,10.949424743652344,0.0,359.0,0.0,1735.7455937999,6.826892238678933e-13,0.0035625427246088,0.0,0.0221057861327977,0.0,257.0,0.0,3.4950218271186446,-0.3461170570774926,-0.9381913359224844,4.0,Other
2020-08-28 13:21:02.300000,-0.4041003463650354,-0.0546510274395469,1.5737437458085934,-0.0464165888489619,-0.0010476408281461,0.0074086230629419,-0.0028484678903157,-0.0028484678903157,0.0094852434121035,1.1103128789658416,0.1286190936783933,0.06808077924353,0.615497676211214,0.1692751778456176,0.2386905810059259,0.0631222908351011,0.0631222908351011,0.065594494903873,0.4797557438341907,0.0924376393950141,0.4859317388219546,0.0848835612497123,10.949424743652344,0.0,359.0,0.0,1735.7455937999,6.826892238678933e-13,0.0035625427246088,0.0,0.0221057861327977,0.0,257.0,0.0,3.4950218271186446,-0.3461170570774926,-0.9381913359224844,4.0,Other
2020-08-28 13:21:03.300000,-0.3721833325544381,-0.0557751662044166,1.573064838391969,-0.0273423519430251,-0.0004400470760494,0.005615004383263,-0.0031555867234799,-0.0031555867234799,0.0090065417492052,1.1075380820694911,0.1287466464346247,0.0679756429058708,0.5985238187846779,0.1678178826616346,0.2377370804389583,0.0627347106646859,0.0627347106646859,0.0652026605079612,0.4606828652995908,0.0906120347148306,0.4807397746462885,0.0849660108885527,10.949424743652344,0.0,359.0,0.0,1735.7455937999,6.826892238678933e-13,0.0035625427246088,0.0,0.0221057861327977,0.0,257.0,0.0,3.4950218271186446,-0.3461170570774926,-0.9381913359224844,4.0,Other
2020-08-28 13:21:04.300000,-0.3513789402348874,-0.057190283261271,1.573092217651659,-0.0273114164040645,-0.0005416783222156,0.0081499051194197,-0.003019729489693,-0.003019729489693,0.0094146073459587,1.1120541373727717,0.1287208202970544,0.0678377043161736,0.595792300434263,0.1648080231888209,0.2282854296377833,0.0617552590542242,0.0617552590542242,0.0648640597449968,0.4497153782083472,0.0881973626336109,0.4821590762022855,0.0845844813248212,10.949424743652344,0.0,359.0,0.0,1735.7455937999,6.826892238678933e-13,0.0035625427246088,0.0,0.0221057861327977,0.0,257.0,0.0,3.4950218271186446,-0.3461170570774926,-0.9381913359224844,4.0,Other
2020-08-28 13:21:05.300000,-0.3297030602716616,-0.0577427258229759,1.573219976290292,-0.020308998576869,0.0006662456019659,0.0067139213870646,-0.0031213546156287,-0.0031213546156287,0.0081793950024539,1.1153419986996418,0.1288083999461694,0.0677759529359973,0.5778038741060233,0.1628429059393175,0.2259320228237306,0.0613579742019205,0.0613579742019205,0.0636022221903503,0.4328893237913426,0.0856981804779241,0.4734698075138129,0.0844531340679594,10.949424743652344,0.0,359.0,0.0,1735.7455937999,6.826892238678933e-13,0.0035625427246088,0.0,0.0221057861327977,0.0,257.0,0.0,3.4950218271186446,-0.3461170570774926,-0.9381913359224844,4.0,Other
2020-08-28 13:21:06.300000,-0.3072507465521676,-0.0587730754217736,1.5728440018937908,-0.0345156974369929,-0.0010783174051941,0.0056094262832636,-0.0030602199364819,-0.0030602199364819,0.0073345350643957,1.117955503128234,0.1289727880567591,0.0677244578885092,0.5631642183956549,0.161122931642519,0.2235424606217474,0.0611535171946209,0.0611535171946209,0.0624884884571049,0.4186395204155224,0.083825618656101,0.4677185296238368,0.0847349359665719,10.949424743652344,0.0,359.0,0.0,1735.7455937999,6.826892238678933e-13,0.0035625427246088,0.0,0.0221057861327977,0.0,257.0,0.0,3.4950218271186446,-0.3461170570774926,-0.9381913359224844,4.0,Other
2020-08-28 13:21:07.300000,-0.272933906681848,-0.0594893696627797,1.5729404872348425,-0.0380952997426014,0.0002388691796166,0.006035364369324,-0.0029565147968774,-0.0029565147968774,0.0071391108726304,1.111299661582643,0.1289851592279934,0.0675682583460036,0.5602187189269003,0.1599024154312262,0.2201232373075762,0.0610557133196737,0.0610557133196737,0.0615216887627334,0.4111690074929073,0.0819863717916979,0.4690591965739923,0.0848977090240723,10.949424743652344,0.0,359.0,0.0,1735.7455937999,6.826892238678933e-13,0.0035625427246088,0.0,0.0221057861327977,0.0,257.0,0.0,3.4950218271186446,-0.3461170570774926,-0.9381913359224844,4.0,Other
2020-08-28 13:21:08.300000,-0.2335401127601473,-0.0595594606576663,1.572585860226991,-0.0479247243447343,-0.0023107216112352,0.0077719636131294,-0.0030952486242113,-0.0030952486242113,0.0068708927480631,1.0964796648948083,0.1287364991877161,0.0675142787078032,0.5535355035082297,0.1586444998692579,0.2168470525660804,0.0605996300976499,0.0605996300976499,0.06125618766048,0.4009944151402294,0.0799087322310777,0.4689288001469339,0.0848021141490186,10.949424743652344,0.0,359.0,0.0,1735.7455937999,6.826892238678933e-13,0.0035625427246088,0.0,0.0221057861327977,0.0,257.0,0.0,3.4950218271186446,-0.3461170570774926,-0.9381913359224844,4.0,Other
2020-08-28 13:21:09.300000,-0.1900918880716189,-0.0595730709341017,1.5719196357068523,-0.0486404636569519,-0.0016556538148673,0.0066665211342237,-0.0031705821016663,-0.0031705821016663,0.0067507839341727,1.079902767056467,0.1286251737692139,0.0673642704091662,0.5505105304561506,0.1594025784650969,0.21340124872598,0.0604566033303875,0.0604566033303875,0.0611079492289014,0.3968182829585555,0.0785376022684145,0.4676548175505766,0.0842195159271887,10.949424743652344,0.0,359.0,0.0,1735.7455937999,6.826892238678933e-13,0.0035625427246088,0.0,0.0221057861327977,0.0,257.0,0.0,3.4950218271186446,-0.3461170570774926,-0.9381913359224844,4.0,Other
2020-08-28 13:21:10.300000,-0.1423157347697833,-0.0603837889724303,1.5713279043973585,-0.0498691150762091,-0.0014151725778588,0.006876788537534,-0.0034130383251907,-0.0034130383251907,0.0059585110617556,1.058720582839502,0.1289433611202476,0.0676327762538853,0.5513689661944282,0.1627415157604731,0.2093292127404297,0.0606582255625336,0.0606582255625336,0.0621935634911971,0.395714629167215,0.0782104349185805,0.469042273751669,0.0842097696887187,10.949424743652344,0.0,359.0,0.0,1735.7455937999,6.826892238678933e-13,0.0035625427246088,0.0,0.0221057861327977,0.0,257.0,0.0,3.4950218271186446,-0.3461170570774926,-0.9381913359224844,4.0,Other
2020-08-28 13:21:11.300000,-0.0963128897672931,-0.0615158523316446,1.572502360466911,-0.0477210272656762,-0.0014566744502615,0.0047173121147564,-0.0030589349654668,-0.0030589349654668,0.0067219997503594,1.0498681375868342,0.1288508118596468,0.0683992139021255,0.5478072826477004,0.1662286421242785,0.2081547616297978,0.0603212562701449,0.0603212562701449,0.0621545757772949,0.3940047509707617,0.0771940335057801,0.4667549849502928,0.0827271134597649,10.949424743652344,0.0,359.0,0.0,1735.7455937999,6.826892238678933e-13,0.0035625427246088,0.0,0.0221057861327977,0.0,257.0,0.0,3.4950218271186446,-0.3461170570774926,-0.9381913359224844,4.0,Other
2020-08-28 13:21:12.300000,-0.0487831526787675,-0.0621583243218099,1.5727183688896864,-0.0421734755454327,-0.0007038559290439,0.0068559198409393,-0.0039023766898473,-0.0039023766898473,0.0061013126829499,1.0425937727334431,0.1288200836279722,0.068438738240841,0.5357920530469029,0.165325380576893,0.2055370178274864,0.0594095807610143,0.0594095807610143,0.061593133889345,0.3844747509834383,0.0759640128397239,0.4587079829905672,0.0818558264996285,10.949424743652344,0.0,359.0,0.0,1735.7455937999,6.826892238678933e-13,0.0035625427246088,0.0,0.0221057861327977,0.0,257.0,0.0,3.4950218271186446,-0.3461170570774926,-0.9381913359224844,4.0,Other
2020-08-28 13:21:13.300000,-0.0051121040589847,-0.0628168299877634,1.573381463124629,-0.0470761298263963,-0.0015985677406167,0.0077039326348197,-0.0036677568407106,-0.0036677568407106,0.0059426466557824,1.0374368799468765,0.1287964802945722,0.06839017109118,0.5320801178398877,0.1637443394711329,0.199809958323343,0.0583621102316023,0.0583621102316023,0.0608500280870017,0.3762024915040659,0.0738035599822392,0.4586536270352475,0.081129981124658,10.949424743652344,0.0,359.0,0.0,1735.7455937999,6.826892238678933e-13,0.0035625427246088,0.0,0.0221057861327977,0.0,257.0,0.0,3.4950218271186446,-0.3461170570774926,-0.9381913359224844,4.0,Other
2020-08-28 13:21:14.300000,0.0385468367846704,-0.0642964361675591,1.5726219968073776,-0.0398220383583842,-0.0018739723220789,0.0067015966859966,-0.0038807540884033,-0.0038807540884033,0.0055171829491804,1.0294053398108232,0.1285646531810995,0.0680496419076336,0.527484258764763,0.1622745743227693,0.1985732069238909,0.0581589534227521,0.0581589534227521,0.0605622313286522,0.3684820988798514,0.0724625895765344,0.4578597877152623,0.0809000774048936,10.949424743652344,0.0,359.0,0.0,1735.7455937999,6.826892238678933e-13,0.0035625427246088,0.0,0.0221057861327977,0.0,257.0,0.0,3.4950218271186446,-0.3461170570774926,-0.9381913359224844,4.0,Other
2020-08-28 13:21:15.300000,0.0835719347316244,-0.066209363486128,1.5715736010903725,-0.0520668451135014,-0.0023118855312355,0.0053485904253876,-0.0037619010382602,-0.0037619010382602,0.0044757067264614,1.0160636774236615,0.1281252536144715,0.0674574588966393,0.514977499810995,0.1608616596345087,0.197557796599159,0.0573011687194742,0.0573011687194742,0.0587534270602454,0.35538060060553,0.0700416927054918,0.454258738736879,0.0800401877995054,10.949424743652344,0.0,359.0,0.0,1735.7455937999,6.826892238678933e-13,0.0035625427246088,0.0,0.0221057861327977,0.0,257.0,0.0,3.4950218271186446,-0.3461170570774926,-0.9381913359224844,4.0,Other
2020-08-28 13:21:16.300000,0.1374388620499118,-0.06995822802014,1.5704497282397925,-0.0504218147278836,-0.0024461890384864,0.0002527300004201,-0.0039387662676526,-0.0039387662676526,0.0040373694083456,0.9828517424886402,0.1243953982703768,0.0667221875781389,0.5124532676872307,0.1601422018838005,0.1886202797247128,0.057257712232501,0.057257712232501,0.0585088975403571,0.3466710793821858,0.0690953327157569,0.4538755359064559,0.0802499223651852,10.949424743652344,0.0,359.0,0.0,1735.7455937999,6.826892238678933e-13,0.0035625427246088,0.0,0.0221057861327977,0.0,257.0,0.0,3.4950218271186446,-0.3461170570774926,-0.9381913359224844,4.0,Other
2020-08-28 13:21:17.300000,0.1887358276021609,-0.077877029643693,1.5697594054923478,-0.0506483685068736,-0.0024112366936394,-0.001054241157721,-0.0040173874718575,-0.0040173874718575,0.0043695572013664,0.9508038523787028,0.1092370366007645,0.0664284477819648,0.5123420789751949,0.1600347629716364,0.1883571456842879,0.0572528611163992,0.0572528611163992,0.0584137411479688,0.346036953973344,0.0688637634318335,0.4541137219512539,0.0803127079520702,10.949424743652344,0.0,359.0,0.0,1735.7455937999,6.826892238678933e-13,0.0035625427246088,0.0,0.0221057861327977,0.0,257.0,0.0,3.4950218271186446,-0.3461170570774926,-0.9381913359224844,4.0,Other
2020-08-28 13:21:18.300000,0.2397733570453083,-0.0861525688906929,1.5689674793384634,-0.0452365448331141,-0.0013106528207808,-0.002126489332048,-0.0042988334638306,-0.0042988334638306,0.0042439396686839,0.914150440750254,0.0892047566742633,0.0662101447872322,0.5170820137541455,0.1616742667434653,0.1909168831941817,0.0574980219971559,0.0574980219971559,0.058591687188796,0.3528665098439806,0.0698042323248799,0.4552969812133252,0.080103576720593,10.949424743652344,0.0,359.0,0.0,1735.7455937999,6.826892238678933e-13,0.0035625427246088,0.0,0.0221057861327977,0.0,257.0,0.0,3.4950218271186446,-0.3461170570774926,-0.9381913359224844,4.0,Other
2020-08-28 13:21:19.300000,0.2800975036768617,-0.0936278778313505,1.5691654399508446,-0.0331548058517748,-0.0011229894609003,0.0011905325970266,-0.0040456950168641,-0.0040456950168641,0.004453573270566,0.8675001662926346,0.0646898417675102,0.0665119602081758,0.5285978648383438,0.1674983229499182,0.196931398854988,0.058046917011111,0.058046917011111,0.0602913701965587,0.3670624456355494,0.0721027269642642,0.4608662776269267,0.0806976125311585,10.949424743652344,0.0,359.0,0.0,1735.7455937999,6.826892238678933e-13,0.0035625427246088,0.0,0.0221057861327977,0.0,257.0,0.0,3.4950218271186446,-0.3461170570774926,-0.9381913359224844,4.0,Other
2020-08-28 13:21:20.300000,0.3104119547882958,-0.0991494546147735,1.5683275841040143,-0.0279225377131953,0.0008430163160635,0.0049556716997641,-0.0042248393057189,-0.0042248393057189,0.0042019792880472,0.8158867910285582,0.0479639754131912,0.0662398990254922,0.5329326223087717,0.1691722100188308,0.200414857814057,0.058373547410568,0.058373547410568,0.0605543685217643,0.3723014629635159,0.073708524124213,0.4634322146109113,0.0813593882351907,10.949424743652344,0.0,359.0,0.0,1735.7455937999,6.826892238678933e-13,0.0035625427246088,0.0,0.0221057861327977,0.0,257.0,0.0,3.4950218271186446,-0.3461170570774926,-0.9381913359224844,4.0,Other
2020-08-28 13:21:21.300000,0.3457392614347219,-0.1003814697260394,1.5677787935277587,-0.0417664142506826,-0.0013472236531744,0.0062195235311662,-0.0043191806151347,-0.0043191806151347,0.003574473786473,0.7465599392228607,0.0466713410595488,0.0659131015733844,0.5426406979409678,0.1702199094500131,0.1997562889680746,0.0584611527949517,0.0584611527949517,0.0631241433608643,0.3798716557408595,0.0755688748944316,0.4696607779939969,0.0821213334146899,10.949424743652344,0.0,359.0,0.0,1735.7455937999,6.826892238678933e-13,0.0035625427246088,0.0,0.0221057861327977,0.0,257.0,0.0,3.4950218271186446,-0.3461170570774926,-0.9381913359224844,4.0,Other
2020-08-28 13:21:22.300000,0.3876983474555755,-0.102598094122702,1.5637946919276196,-0.040147100142149,-0.0050858767864336,0.0052963444845326,-0.0044742887607231,-0.0044742887607231,0.0033028902309309,0.6669846791611385,0.042156302766992,0.0590686998015296,0.5424220949423465,0.1664465201798665,0.1986648439945931,0.0583993845987326,0.0583993845987326,0.0635707017053343,0.3765083531826935,0.0757663190831176,0.4701782347016508,0.0822840559286407,10.949424743652344,0.0,359.0,0.0,1735.7455937999,6.826892238678933e-13,0.0035625427246088,0.0,0.0221057861327977,0.0,257.0,0.0,3.4950218271186446,-0.3461170570774926,-0.9381913359224844,4.0,Other
2020-08-28 13:21:23.300000,0.4246860535353571,-0.1019654638245709,1.5579180579613925,-0.0345108855086473,-0.0045237689559501,0.0103274656377559,-0.0045034593333816,-0.0045034593333816,0.0036583277032696,0.5874669143861561,0.0408251552491451,0.0382210567108067,0.5416921051867613,0.1568795485321136,0.1892283194173643,0.0568826257766848,0.0568826257766848,0.0628698913183034,0.3697122469168474,0.0742869344517699,0.467176891691354,0.0814453166584038,10.949424743652344,0.0,359.0,0.0,1735.7455937999,6.826892238678933e-13,0.0035625427246088,0.0,0.0221057861327977,0.0,257.0,0.0,3.4950218271186446,-0.3461170570774926,-0.9381913359224844,4.0,Other
2020-08-28 13:21:24.300000,0.4483534905768174,-0.1005738556402279,1.5563398925912957,-0.0156663892048406,0.0028434146068581,0.009563702972956,-0.0041947935067873,-0.0041947935067873,0.0038028843390961,0.5210519345596791,0.0404171509902081,0.0345994575639541,0.543683330536475,0.15042095383171,0.1909361239720268,0.0569629682383028,0.0569629682383028,0.0626637869207936,0.3701117522790643,0.0744566532858981,0.4667003076377289,0.0813743704198829,10.949424743652344,0.0,359.0,0.0,1735.7455937999,6.826892238678933e-13,0.0035625427246088,0.0,0.0221057861327977,0.0,257.0,0.0,3.4950218271186446,-0.3461170570774926,-0.9381913359224844,4.0,Other
2020-08-28 13:21:25.300000,0.4641633545809399,-0.1005696702471348,1.5565501563560944,-0.0111834982839318,0.0027814502479158,0.0083651070548113,-0.004354738058544,-0.004354738058544,0.0029462996417789,0.4743584900003139,0.0405380773015358,0.0347210258959261,0.540454702635827,0.1502447157404899,0.1933301595148771,0.0570094779922674,0.0570094779922674,0.0634425968887105,0.3690765836399767,0.0752094362625322,0.4645426536645894,0.0816820117790864,10.949424743652344,0.0,359.0,0.0,1735.7455937999,6.826892238678933e-13,0.0035625427246088,0.0,0.0221057861327977,0.0,257.0,0.0,3.4950218271186446,-0.3461170570774926,-0.9381913359224844,4.0,Other
2020-08-28 13:21:26.300000,0.4612145675113812,-0.1014602286916438,1.558586550730834,0.0176938410930509,0.0067619042929739,0.0054048421643922,-0.0038561040470484,-0.0038561040470484,0.0039921107387384,0.4816652546356018,0.0408372025676104,0.030114928896378,0.5356997049608285,0.1497200817017911,0.1943116340273789,0.057252101283554,0.057252101283554,0.0640777889142291,0.3676761254942575,0.0757531614085827,0.4605701894662571,0.0820100844886902,10.949424743652344,0.0,359.0,0.0,1735.7455937999,6.826892238678933e-13,0.0035625427246088,0.0,0.0221057861327977,0.0,257.0,0.0,3.4950218271186446,-0.3461170570774926,-0.9381913359224844,4.0,Other
2020-08-28 13:21:27.300000,0.4415112273138444,-0.1021182137695853,1.560343301534256,0.0287207783906474,0.0067797274965662,0.0049082436118454,-0.0044423328858246,-0.0044423328858246,0.0030012410413009,0.5193418881646937,0.0413936133555584,0.0278587317083063,0.5166851625252923,0.1483556637950462,0.2053846117197271,0.0564344122921978,0.0564344122921978,0.0620874696657779,0.3629423958335454,0.0754074794208543,0.4473315337904707,0.0812654987717946,10.949424743652344,0.0,359.0,0.0,1735.7455937999,6.826892238678933e-13,0.0035625427246088,0.0,0.0221057861327977,0.0,257.0,0.0,3.4950218271186446,-0.3461170570774926,-0.9381913359224844,4.0,Other
2020-08-28 13:21:28.300000,0.4092287695168606,-0.1023342017575008,1.5612435795106427,0.02690081723335,0.004822801900857,0.0054910805048467,-0.0043680769036494,-0.0043680769036494,0.0033716328330524,0.5650765931326586,0.0416989770703452,0.0273834198402236,0.5135754091364316,0.1465584130329547,0.2077337146151025,0.0542521031308226,0.0542521031308226,0.0620777026875359,0.3623259146285384,0.074329346741861,0.4446030335285403,0.0796863381222059,10.949424743652344,0.0,359.0,0.0,1735.7455937999,6.826892238678933e-13,0.0035625427246088,0.0,0.0221057861327977,0.0,257.0,0.0,3.4950218271186446,-0.3461170570774926,-0.9381913359224844,4.0,Other
2020-08-28 13:21:29.300000,0.3765620851297297,-0.1017322263885916,1.5615569271779497,0.0338790907490434,0.0055114084919806,0.0047020471024136,-0.0045873726068836,-0.0045873726068836,0.003966253628945,0.588103581867522,0.04215445632143,0.027402450935833,0.4995689819047603,0.1460216364694297,0.208551353097765,0.0551932479007217,0.0551932479007217,0.0618185333832955,0.3575527545288581,0.0741703931893346,0.4330477865576194,0.079827125417152,10.949424743652344,0.0,359.0,0.0,1735.7455937999,6.826892238678933e-13,0.0035625427246088,0.0,0.0221057861327977,0.0,257.0,0.0,3.4950218271186446,-0.3461170570774926,-0.9381913359224844,4.0,Other
2020-08-28 13:21:30.300000,0.3436210765635065,-0.1006855170627762,1.5617982494255866,0.0360758417726071,0.0054370003369653,0.0026890644230283,-0.0043338063155949,-0.0043338063155949,0.0039657054843997,0.6078008447772864,0.0421995712737451,0.027298807578919,0.4959196055015469,0.1436125054457789,0.212483751076298,0.0540699531108127,0.0540699531108127,0.0609031302385501,0.3568495200968472,0.0734707751700113,0.430693422498041,0.0790507906009122,10.949424743652344,0.0,359.0,0.0,1735.7455937999,6.826892238678933e-13,0.0035625427246088,0.0,0.0221057861327977,0.0,257.0,0.0,3.4950218271186446,-0.3461170570774926,-0.9381913359224844,4.0,Other
2020-08-28 13:21:31.300000,0.3097212551852778,-0.1015390158994487,1.5611866133383625,0.0328881651877476,0.0043487720464212,0.0048249838253895,-0.0048131818779296,-0.0048131818779296,0.0040247780511065,0.6223249133400082,0.0428107296939825,0.027524032139721,0.5034063082804955,0.1423771133772636,0.2139970644462643,0.0543228378541879,0.0543228378541879,0.0604056475663969,0.357724657177453,0.0731980454882123,0.4386677391694256,0.0788435147451457,10.949424743652344,0.0,359.0,0.0,1735.7455937999,6.826892238678933e-13,0.0035625427246088,0.0,0.0221057861327977,0.0,257.0,0.0,3.4950218271186446,-0.3461170570774926,-0.9381913359224844,4.0,Other
2020-08-28 13:21:32.300000,0.2814795760385159,-0.1017932646316878,1.5607541144985129,0.021131949414795,0.0040777380936182,0.0077907688661591,-0.0045540160228329,-0.0045540160228329,0.003991694398807,0.6372014372453296,0.0419633215878344,0.0278657507835681,0.503676552418844,0.143260444453567,0.2174197424479813,0.05420884342958,0.05420884342958,0.0601433538488452,0.3582991348183518,0.0723398886286964,0.4397925550361125,0.0768794364690737,10.949424743652344,0.0,359.0,0.0,1735.7455937999,6.826892238678933e-13,0.0035625427246088,0.0,0.0221057861327977,0.0,257.0,0.0,3.4950218271186446,-0.3461170570774926,-0.9381913359224844,4.0,Other
2020-08-28 13:21:33.300000,0.2584697715473205,-0.0997657142340332,1.5608691824057732,0.02543165531558,0.0047090671330492,0.0059049095363416,-0.0051011182305816,-0.0051011182305816,0.0039081338439725,0.6483816670006444,0.0432804853607293,0.0279354059709882,0.4908812131435889,0.1423557808527202,0.2195761932782154,0.0548519080468887,0.0548519080468887,0.0598053324466128,0.3534361364661914,0.0729505251079402,0.4301429135363843,0.0778765802663597,10.949424743652344,0.0,359.0,0.0,1735.7455937999,6.826892238678933e-13,0.0035625427246088,0.0,0.0221057861327977,0.0,257.0,0.0,3.4950218271186446,-0.3461170570774926,-0.9381913359224844,4.0,Other
2020-08-28 13:21:34.300000,0.238943900147487,-0.0984244094314107,1.5611352269939098,0.0187088333917921,0.00405337717756,0.0063056163784246,-0.0054519336156162,-0.0054519336156162,0.0040678451342908,0.6623615441428348,0.0420126764584996,0.027616718166999,0.5018283669081088,0.1386492317305414,0.2188542710285644,0.0551997216423802,0.0551997216423802,0.0585021930069728,0.3557474643368818,0.0722776956975227,0.4388532942692864,0.0764281344170383,10.949424743652344,0.0,359.0,0.0,1735.7455937999,6.826892238678933e-13,0.0035625427246088,0.0,0.0221057861327977,0.0,257.0,0.0,3.4950218271186446,-0.3461170570774926,-0.9381913359224844,4.0,Other
2020-08-28 13:21:35.300000,0.2306917137908013,-0.0986085801851972,1.561339672016423,0.0029215865238521,0.0001681909110775,0.0038037548769891,-0.0047683055309606,-0.0047683055309606,0.0036589793873309,0.667648709738199,0.0428981265587503,0.0273672576189309,0.4844126843297341,0.1373829703814355,0.2207742620194841,0.0565964765696984,0.0565964765696984,0.0575636370960735,0.3471646926084795,0.0728147707082248,0.4261101723205217,0.0769962756261889,10.949424743652344,0.0,359.0,0.0,1735.7455937999,6.826892238678933e-13,0.0035625427246088,0.0,0.0221057861327977,0.0,257.0,0.0,3.4950218271186446,-0.3461170570774926,-0.9381913359224844,4.0,Other
2020-08-28 13:21:36.300000,0.2376826830648394,-0.0994774132906753,1.5607622530615073,-0.005156217648891,0.0010659310164026,0.0023085833798331,-0.0044233858486181,-0.0044233858486181,0.0031779744660794,0.6618960362145411,0.0417319101799488,0.0268353086017537,0.4903341240217051,0.1357546416697357,0.2208734600173113,0.0562098187111446,0.0562098187111446,0.0576151439896525,0.3501810582012511,0.072754139720603,0.4299347825078251,0.0767508995806705,10.949424743652344,0.0,359.0,0.0,1735.7455937999,6.826892238678933e-13,0.0035625427246088,0.0,0.0221057861327977,0.0,257.0,0.0,3.4950218271186446,-0.3461170570774926,-0.9381913359224844,4.0,Other
2020-08-28 13:21:37.300000,0.2510399611545928,-0.1005890881306624,1.5595925272800364,-0.0064686393611653,0.0015040188345952,0.0032265218030568,-0.0049748759896505,-0.0049748759896505,0.0026322500082895,0.6507652089769325,0.0411154716792297,0.0277974016297714,0.483040799023053,0.1335734647466975,0.2177797558043367,0.0552605644656995,0.0552605644656995,0.0564238664850045,0.3417284642623989,0.0711176722005904,0.4262392976423577,0.0758155307048781,10.949424743652344,0.0,359.0,0.0,1735.7455937999,6.826892238678933e-13,0.0035625427246088,0.0,0.0221057861327977,0.0,257.0,0.0,3.4950218271186446,-0.3461170570774926,-0.9381913359224844,4.0,Other
2020-08-28 13:21:38.300000,0.2575706083996968,-0.1023524547338224,1.5596712899089058,-0.0002581645461874,0.0009473871328122,0.0042567077509674,-0.0047633681638466,-0.0047633681638466,0.0041082610504797,0.6475712439743281,0.0398506190736289,0.0275010036802351,0.4776529632636594,0.1312870124897474,0.2152339815613509,0.0540735393108859,0.0540735393108859,0.0551559026171854,0.3331163088502262,0.0687740206552635,0.4249494040387205,0.0747369251540851,10.949424743652344,0.0,359.0,0.0,1735.7455937999,6.826892238678933e-13,0.0035625427246088,0.0,0.0221057861327977,0.0,257.0,0.0,3.4950218271186446,-0.3461170570774926,-0.9381913359224844,4.0,Other
2020-08-28 13:21:39.300000,0.2590802906920975,-0.1027864092076119,1.5592302748446851,0.0105095348110152,0.0020031782576873,0.0039529877679171,-0.005022983830701,-0.005022983830701,0.0034444257245087,0.6466426593570646,0.0398070533450301,0.0276492375024615,0.4690393880794316,0.1307263718792774,0.2143713622618601,0.0537409040666264,0.0537409040666264,0.0539851348677197,0.3242512297580427,0.067312367117216,0.4217328862827136,0.0744537094630899,10.949424743652344,0.0,359.0,0.0,1735.7455937999,6.826892238678933e-13,0.0035625427246088,0.0,0.0221057861327977,0.0,257.0,0.0,3.4950218271186446,-0.3461170570774926,-0.9381913359224844,4.0,Other
2020-08-28 13:21:40.300000,0.2477341106289633,-0.1036474960743791,1.5593606396245083,0.0184970782866729,0.0038234739023541,0.0060878494419715,-0.0050914119464188,-0.0050914119464188,0.0035413846299176,0.6482579291932735,0.0392776169922641,0.0274534460559753,0.4680406012582629,0.1311828541173867,0.2144310269397567,0.0537326034816954,0.0537326034816954,0.053652103998438,0.324334114147371,0.0669057474462463,0.4210441205691634,0.0744184870763424,10.949424743652344,0.0,359.0,0.0,1735.7455937999,6.826892238678933e-13,0.0035625427246088,0.0,0.0221057861327977,0.0,257.0,0.0,3.4950218271186446,-0.3461170570774926,-0.9381913359224844,4.0,Other
2020-08-28 13:21:41.300000,0.228584172219742,-0.1043001192977524,1.5595280933697488,0.0245874516019743,0.0037482141202529,0.0050880733734855,-0.0045046339713396,-0.0045046339713396,0.0041775171352107,0.6606272947305053,0.0396289533593364,0.0274259726803339,0.4873256249817219,0.1316661282829409,0.2189256492444786,0.0545431688319584,0.0545431688319584,0.0548394572943485,0.3392309756874456,0.0686124316339871,0.4337358384439168,0.0754689140391222,10.949424743652344,0.0,359.0,0.0,1735.7455937999,6.826892238678933e-13,0.0035625427246088,0.0,0.0221057861327977,0.0,257.0,0.0,3.4950218271186446,-0.3461170570774926,-0.9381913359224844,4.0,Other
2020-08-28 13:21:42.300000,0.2108835128389657,-0.1042747271612143,1.559142001655058,0.0231094230795449,0.0039466577210152,0.0035634590111387,-0.0046842102698993,-0.0046842102698993,0.003664234662413,0.6718862254648992,0.0400311008289644,0.0275848999163434,0.4892542831673387,0.1334435329423191,0.2276521866379841,0.055571104702664,0.055571104702664,0.0552384087104906,0.3457380059957455,0.0705064565984321,0.4356968117168214,0.0759729241446247,10.949424743652344,0.0,359.0,0.0,1735.7455937999,6.826892238678933e-13,0.0035625427246088,0.0,0.0221057861327977,0.0,257.0,0.0,3.4950218271186446,-0.3461170570774926,-0.9381913359224844,4.0,Other
2020-08-28 13:21:43.300000,0.1959063116579899,-0.1040723927918752,1.5588126537605451,0.0153896347945013,0.0032966912920879,0.0045937550689609,-0.0045199806797325,-0.0045199806797325,0.0045579759630308,0.6840599708606214,0.0412759584231519,0.0276417906419309,0.5017465400249941,0.134738764475353,0.2307310646916982,0.0557643426178181,0.0557643426178181,0.0567115989751585,0.3569248281130872,0.0727293675916486,0.4424958197003827,0.0768725006112193,10.949424743652344,0.0,359.0,0.0,1735.7455937999,6.826892238678933e-13,0.0035625427246088,0.0,0.0221057861327977,0.0,257.0,0.0,3.4950218271186446,-0.3461170570774926,-0.9381913359224844,4.0,Other
2020-08-28 13:21:44.300000,0.1861232889324474,-0.1029068627534201,1.5579069329180852,0.0192097900009182,0.0040415349275419,0.0035988336162464,-0.0046776604533393,-0.0046776604533393,0.0043646929763914,0.6844966396216939,0.0417352552475212,0.0290697727938991,0.4999425333929677,0.1346376970379498,0.2313002042725789,0.0559270677022645,0.0559270677022645,0.0570005010456506,0.3544781338715785,0.0733798318729389,0.4428367917861463,0.0767813014871781,10.949424743652344,0.0,359.0,0.0,1735.7455937999,6.826892238678933e-13,0.0035625427246088,0.0,0.0221057861327977,0.0,257.0,0.0,3.4950218271186446,-0.3461170570774926,-0.9381913359224844,4.0,Other
2020-08-28 13:21:45.300000,0.174069305279164,-0.1027147314331483,1.5569112786834134,0.0169087853491888,0.0033423767150836,0.0032659362081109,-0.0046697906567133,-0.0046697906567133,0.0048081534178602,0.6818080837926914,0.0417065979747715,0.0300482746192306,0.4996513029855499,0.1345925626269563,0.2312910858723124,0.0559300361605389,0.0559300361605389,0.0571025859586177,0.3531719966746577,0.0737023184088389,0.4434321405933842,0.0766230215943646,10.949424743652344,0.0,359.0,0.0,1735.7455937999,6.826892238678933e-13,0.0035625427246088,0.0,0.0221057861327977,0.0,257.0,0.0,3.4950218271186446,-0.3461170570774926,-0.9381913359224844,4.0,Other
2020-08-28 13:21:46.300000,0.1656562728710018,-0.1030411887627262,1.556093324440688,0.0133748444613881,0.0034326175646159,0.0036396141831891,-0.0046562783531658,-0.0046562783531658,0.0051384337630724,0.6803138138252445,0.041919139972466,0.0310391645561348,0.4996646342094483,0.1345838565434847,0.2313397780652548,0.0559274743086669,0.0559274743086669,0.0571394486026443,0.3532737601281347,0.0739734443144651,0.4432714253200964,0.0764465465051813,10.949424743652344,0.0,359.0,0.0,1735.7455937999,6.826892238678933e-13,0.0035625427246088,0.0,0.0221057861327977,0.0,257.0,0.0,3.4950218271186446,-0.3461170570774926,-0.9381913359224844,4.0,Other
2020-08-28 13:21:47.300000,0.1583168773627077,-0.1030145395483616,1.5555476156526715,0.0143274910036728,0.0034259219976225,0.0039923166137145,-0.0046543572686872,-0.0046543572686872,0.0053846292110925,0.6787443259530577,0.0419087964217179,0.0316373500653502,0.4996997865090345,0.1345826448687172,0.2313359568247174,0.0559265105949735,0.0559265105949735,0.0571565290999701,0.3537037221538556,0.0742693506199341,0.4429979650509303,0.0762486314831772,10.949424743652344,0.0,359.0,0.0,1735.7455937999,6.826892238678933e-13,0.0035625427246088,0.0,0.0221057861327977,0.0,257.0,0.0,3.4950218271186446,-0.3461170570774926,-0.9381913359224844,4.0,Other
2020-08-28 13:21:48.300000,0.1499641547588862,-0.102898627828757,1.5551620172383187,0.0153070924727683,0.0038029321162541,0.0038293387520804,-0.0046429827982891,-0.0046429827982891,0.0055569217427201,0.67718433181138,0.0418747268208438,0.0320108210726981,0.4996817908305835,0.1345559231370829,0.2313329853380173,0.0559261991307657,0.0559261991307657,0.0571590002646549,0.3537327849889253,0.0744178814540165,0.4429792127473835,0.0761304440852967,10.949424743652344,0.0,359.0,0.0,1735.7455937999,6.826892238678933e-13,0.0035625427246088,0.0,0.0221057861327977,0.0,257.0,0.0,3.4950218271186446,-0.3461170570774926,-0.9381913359224844,4.0,Other
2020-08-28 13:21:49.300000,0.1411787765307012,-0.1026722158168979,1.5548146276823098,0.0152451820344588,0.0037376797926951,0.0042641386219274,-0.0046554732937582,-0.0046554732937582,0.0057175245241396,0.675466653631658,0.0418298489192332,0.0322957718841206,0.4996798646019704,0.1345527855987442,0.2313307755206795,0.0559259788542605,0.0559259788542605,0.0571523246181253,0.3536745184761722,0.0745421319255885,0.4430228159224187,0.076030002951987,10.949424743652344,0.0,359.0,0.0,1735.7455937999,6.826892238678933e-13,0.0035625427246088,0.0,0.0221057861327977,0.0,257.0,0.0,3.4950218271186446,-0.3461170570774926,-0.9381913359224844,4.0,Other
2020-08-28 13:21:50.300000,0.1322789684176595,-0.1020448667527224,1.5544775855323043,0.0165040317044195,0.003698853930821,0.0047394532590992,-0.0046591671949218,-0.0046591671949218,0.0058366779281375,0.6738137298652445,0.0417550351423703,0.032426192835027,0.4997874421434017,0.1346112029706538,0.2313520549052832,0.0559317886258789,0.0559317886258789,0.0571487130346295,0.3544433194860175,0.074816823306831,0.4426070804193011,0.0758296754064372,10.949424743652344,0.0,359.0,0.0,1735.7455937999,6.826892238678933e-13,0.0035625427246088,0.0,0.0221057861327977,0.0,257.0,0.0,3.4950218271186446,-0.3461170570774926,-0.9381913359224844,4.0,Other
2020-08-28 13:21:51.300000,0.1180834832500451,-0.1013011033398822,1.5536996094438678,0.0257762157816917,0.004080598786498,0.0046291668618875,-0.0047119870757104,-0.0047119870757104,0.0058604906779557,0.6742097618449686,0.0416883476220695,0.0330017496287319,0.5048030070590572,0.134817328228088,0.2315608026806136,0.0560259375447365,0.0560259375447365,0.0572681463008286,0.3633542060537153,0.0755388210040067,0.4416780897944026,0.0754899852474496,10.949424743652344,0.0,359.0,0.0,1735.7455937999,6.826892238678933e-13,0.0035625427246088,0.0,0.0221057861327977,0.0,257.0,0.0,3.4950218271186446,-0.3461170570774926,-0.9381913359224844,4.0,Other
2020-08-28 13:21:52.300000,0.0944611393290184,-0.1007327213379772,1.554336839230009,0.0346228885262919,0.0071421403766372,0.0040506889730592,-0.0046985971550774,-0.0046985971550774,0.0063744417938733,0.6839376550130074,0.0420297455278768,0.0338847289612806,0.5114863255352982,0.1376296642037041,0.2339085789605706,0.0570492917020679,0.0570492917020679,0.0576546430755524,0.3745180256463529,0.0773360453101224,0.4427687403914527,0.0754423642272114,10.949424743652344,0.0,359.0,0.0,1735.7455937999,6.826892238678933e-13,0.0035625427246088,0.0,0.0221057861327977,0.0,257.0,0.0,3.4950218271186446,-0.3461170570774926,-0.9381913359224844,4.0,Other
2020-08-28 13:21:53.300000,0.070067911578053,-0.099456730941016,1.5548709035911497,0.03298389322408,0.0069712385071903,0.0053890187389367,-0.0049412972518489,-0.0049412972518489,0.0059000760961491,0.6936449400259156,0.0430636260665865,0.0344147135620515,0.5181507320790052,0.1411260360063421,0.242194645982204,0.0580427813890289,0.0580427813890289,0.058756717905598,0.3878458713768693,0.0800641794242746,0.4444630220325877,0.0761866870388645,10.949424743652344,0.0,359.0,0.0,1735.7455937999,6.826892238678933e-13,0.0035625427246088,0.0,0.0221057861327977,0.0,257.0,0.0,3.4950218271186446,-0.3461170570774926,-0.9381913359224844,4.0,Other
2020-08-28 13:21:54.300000,0.0366620154939705,-0.0988926832514925,1.5554154910977789,0.037546845976598,0.0069968830561652,0.0059939795282178,-0.0043041300952136,-0.0043041300952136,0.007627449099117,0.7185027436047167,0.0436389606539913,0.0347676288044717,0.5471368034511827,0.1444939760808534,0.2473653774627535,0.0589315229863573,0.0589315229863573,0.0612972373462444,0.4104587407212133,0.0830805478450513,0.4627815790122893,0.0772874844056964,10.949424743652344,0.0,359.0,0.0,1735.7455937999,6.826892238678933e-13,0.0035625427246088,0.0,0.0221057861327977,0.0,257.0,0.0,3.4950218271186446,-0.3461170570774926,-0.9381913359224844,4.0,Other
2020-08-28 13:21:55.300000,0.0113391848764435,-0.0970980332262018,1.5556339350794,0.0313793504292985,0.0080062065028683,0.0042547128595622,-0.00459110335185,-0.00459110335185,0.0076601690738252,0.7271389111904368,0.0451547915259491,0.0349516568873375,0.5555948005333875,0.1472539800446775,0.2509187878439265,0.0606329166186997,0.0606329166186997,0.062111771462473,0.4230486632599653,0.0857886606752405,0.4638208098752389,0.0783740947964688,10.949424743652344,0.0,359.0,0.0,1735.7455937999,6.826892238678933e-13,0.0035625427246088,0.0,0.0221057861327977,0.0,257.0,0.0,3.4950218271186446,-0.3461170570774926,-0.9381913359224844,4.0,Other
2020-08-28 13:21:56.300000,-0.0014891045462542,-0.0956982013666736,1.5556294608631864,0.0119291537568382,0.006360291924092,0.0059035050678074,-0.0048832389062732,-0.0048832389062732,0.0082848906120325,0.7260745009263054,0.0456429295341243,0.0352221096901542,0.5824103800756498,0.1518538650887763,0.2533100988843839,0.061999296605498,0.061999296605498,0.0635177325248979,0.4432873267847653,0.0884338671642357,0.4793894713675654,0.0787573242221819,10.949424743652344,0.0,359.0,0.0,1735.7455937999,6.826892238678933e-13,0.0035625427246088,0.0,0.0221057861327977,0.0,257.0,0.0,3.4950218271186446,-0.3461170570774926,-0.9381913359224844,4.0,Other
2020-08-28 13:21:57.300000,-0.0040299264097445,-0.094654389572892,1.555640147847066,0.0057307379730913,0.0053453368643072,0.0043234582231093,-0.0042422303244992,-0.0042422303244992,0.0090057132843131,0.7246256379301306,0.0455176292744455,0.0353785558367286,0.5930659200435765,0.1542721545776468,0.256131903697039,0.0628526416849106,0.0628526416849106,0.064391037650582,0.4554992806239603,0.0906068278684617,0.4830998665893486,0.0790304036028658,10.949424743652344,0.0,359.0,0.0,1735.7455937999,6.826892238678933e-13,0.0035625427246088,0.0,0.0221057861327977,0.0,257.0,0.0,3.4950218271186446,-0.3461170570774926,-0.9381913359224844,4.0,Other
2020-08-28 13:21:58.300000,0.0005863788718914,-0.0945167749442542,1.5550555258543044,0.002448990693883,0.005348252136409,0.0018619526690569,-0.0039627715176631,-0.0039627715176631,0.0088364365890299,0.7286836233075883,0.0459636977749406,0.0354269473347173,0.5959307286927972,0.1562557049927787,0.2620372880426067,0.0642684236350181,0.0642684236350181,0.0648622443308424,0.4629763657187405,0.0927743248508907,0.483266583091363,0.0794372068569991,10.949424743652344,0.0,359.0,0.0,1735.7455937999,6.826892238678933e-13,0.0035625427246088,0.0,0.0221057861327977,0.0,257.0,0.0,3.4950218271186446,-0.3461170570774926,-0.9381913359224844,4.0,Other
2020-08-28 13:21:59.300000,0.0094958530190311,-0.09379762766085,1.554011183649847,-0.004225831818976,0.0031226896572417,0.0038053392875821,-0.0039413329864698,-0.0039413329864698,0.0095668872461937,0.7381876809456556,0.0462334366489977,0.0364436126389759,0.6043410260545807,0.1586495156236765,0.2648214959712655,0.0643646527259407,0.0643646527259407,0.0661096016399405,0.4727009462872887,0.0946773716200184,0.4865714068681272,0.0795570483952638,10.949424743652344,0.0,359.0,0.0,1735.7455937999,6.826892238678933e-13,0.0035625427246088,0.0,0.0221057861327977,0.0,257.0,0.0,3.4950218271186446,-0.3461170570774926,-0.9381913359224844,4.0,Other
2020-08-28 13:22:00.300000,0.01947660729809,-0.092203398118412,1.5525359266411247,0.0051185076416295,0.0053127691337215,0.0039847820304557,-0.0039935938629651,-0.0039935938629651,0.0099770764939598,0.749166143271213,0.0468307148947687,0.0386951329748294,0.6127119192976364,0.1604118189715294,0.2656493025059448,0.0650707061242051,0.0650707061242051,0.0662767661149065,0.4835274461965688,0.096491928841436,0.4874416519499276,0.0792476141489788,10.949424743652344,0.0,359.0,0.0,1735.7455937999,6.826892238678933e-13,0.0035625427246088,0.0,0.0221057861327977,0.0,257.0,0.0,3.4993851502486306,-0.3502073812594672,-0.9366721892483976,4.0,Other
2020-08-28 13:22:01.300000,0.0215022289018986,-0.091337155737714,1.552405619383255,0.0032495679465523,0.0054575684209185,0.0031273900593217,-0.0037955776129704,-0.0037955776129704,0.0107789025727206,0.7508210148019965,0.0470279186990187,0.0387407595343459,0.6229728926023308,0.1614707155335277,0.2691654755174492,0.0670666022128613,0.0670666022128613,0.0673568295008241,0.4966418038051262,0.0995893876208437,0.4894937274397078,0.0804052574409572,10.949424743652344,0.0,359.0,0.0,1735.7455937999,6.826892238678933e-13,0.0035625427246088,0.0,0.0221057861327977,0.0,257.0,0.0,3.4993851502486306,-0.3502073812594672,-0.9366721892483976,4.0,Other
2020-08-28 13:22:02.300000,0.0241446563784896,-0.0910930184552477,1.5524648637224157,0.0079230013692413,0.0067269834519337,0.0026137593094594,-0.0035570383369426,-0.0035570383369426,0.0115703733114156,0.7529753886682318,0.0475379079462718,0.0388208073962332,0.6285357051516391,0.1630555510027042,0.275332485071453,0.0681503891896965,0.0681503891896965,0.0681504619983493,0.507805708094041,0.1021294227841466,0.4891532042439796,0.0804269827615783,10.949424743652344,0.0,359.0,0.0,1735.7455937999,6.826892238678933e-13,0.0035625427246088,0.0,0.0221057861327977,0.0,257.0,0.0,3.4993851502486306,-0.3502073812594672,-0.9366721892483976,4.0,Other
2020-08-28 13:22:03.300000,0.033459062366034,-0.0904551187119074,1.5519956234290873,-0.0052377950762725,0.0051972580470838,0.0047142075908567,-0.0035972701828808,-0.0035972701828808,0.0116340696514148,0.7628824591922784,0.0475580228278441,0.0390176716619881,0.6410908523179786,0.1652955540545174,0.2778740462519227,0.0688010571619067,0.0688010571619067,0.068895194919141,0.5229712720958567,0.1042537290660983,0.4915852939192663,0.0799658112133371,10.949424743652344,0.0,359.0,0.0,1735.7455937999,6.826892238678933e-13,0.0035625427246088,0.0,0.0221057861327977,0.0,257.0,0.0,3.4993851502486306,-0.3502073812594672,-0.9366721892483976,4.0,Other
2020-08-28 13:22:04.300000,0.0394274564927833,-0.0892670770076143,1.5523744955435768,0.0096827434537042,0.0059652321672875,0.0052504303718695,-0.0034470189728474,-0.0034470189728474,0.012895039631404,0.7689008154448298,0.0479523422625895,0.0392920453594864,0.6531559127142791,0.1666802220447048,0.2790968088898576,0.068867749341119,0.068867749341119,0.0694998449244778,0.5382008630542104,0.1056345440349498,0.4922440487928322,0.0792710300732684,10.949424743652344,0.0,359.0,0.0,1735.7455937999,6.826892238678933e-13,0.0035625427246088,0.0,0.0221057861327977,0.0,257.0,0.0,3.4993851502486306,-0.3502073812594672,-0.9366721892483976,4.0,Other
2020-08-28 13:22:05.300000,0.0363050017697964,-0.0876991017136852,1.5523198026785636,0.0121793519649747,0.0068200432576127,0.005451978545732,-0.003545155789015,-0.003545155789015,0.0127324229865621,0.7674037632674355,0.0486056699137523,0.0394896332955679,0.6535740359660733,0.168099479731529,0.2803561994916598,0.0691998113550038,0.0691998113550038,0.0697271208231392,0.5431262379715698,0.1071407000496519,0.4886340637346157,0.0785892809710716,10.949424743652344,0.0,359.0,0.0,1735.7455937999,6.826892238678933e-13,0.0035625427246088,0.0,0.0221057861327977,0.0,257.0,0.0,3.4993851502486306,-0.3502073812594672,-0.9366721892483976,4.0,Other
2020-08-28 13:22:06.300000,0.0313910767361573,-0.0865751711416382,1.553968676810653,0.010715678199419,0.0066731778289595,0.0050819929175469,-0.0031694193648022,-0.0031694193648022,0.0128190066671609,0.7652916980719,0.0489510255776803,0.041368802456981,0.6580320289951462,0.1707624096536266,0.2834363500337636,0.0712794627885217,0.0712794627885217,0.0705121282408507,0.55300043493009,0.109623250472604,0.4861773802909124,0.0785585576213484,10.949424743652344,0.0,359.0,0.0,1735.7455937999,6.826892238678933e-13,0.0035625427246088,0.0,0.0221057861327977,0.0,257.0,0.0,3.4993851502486306,-0.3502073812594672,-0.9366721892483976,4.0,Other
2020-08-28 13:22:07.300000,0.0266898020147312,-0.0855079998321353,1.5549828035264166,0.0195734541407614,0.0079060689323022,0.0061637417908398,-0.0034411413697355,-0.0034411413697355,0.0138676939609641,0.7634396693178118,0.0495805514027625,0.0422438357223728,0.6654169802131572,0.1729589527207605,0.2877572872938904,0.0721873477274444,0.0721873477274444,0.0713782415167616,0.5660817524020291,0.1121254132706964,0.4847686105024867,0.0781320742287215,10.949424743652344,0.0,359.0,0.0,1735.7455937999,6.826892238678933e-13,0.0035625427246088,0.0,0.0221057861327977,0.0,257.0,0.0,3.4993851502486306,-0.3502073812594672,-0.9366721892483976,4.0,Other
2020-08-28 13:22:08.300000,0.0166912337151374,-0.0845772022956576,1.5550381487697214,0.0215054696205749,0.0067121139882494,0.0059618774151426,-0.0035429742689338,-0.0035429742689338,0.0138830600582224,0.7609241821228078,0.0500272891165164,0.0424795934808575,0.6704144139224077,0.1758567318637265,0.290944496503413,0.0729593202284642,0.0729593202284642,0.071710948053082,0.577013763327906,0.1141311760959777,0.4817405652322601,0.0776139862837369,10.949424743652344,0.0,359.0,0.0,1735.7455937999,6.826892238678933e-13,0.0035625427246088,0.0,0.0221057861327977,0.0,257.0,0.0,3.4993851502486306,-0.3502073812594672,-0.9366721892483976,4.0,Other
2020-08-28 13:22:09.300000,-0.0056172681290623,-0.0851278571596614,1.5555610023996795,0.0348184938525499,0.007891741028821,0.0043553823404503,-0.0033960028515877,-0.0033960028515877,0.0148070606832297,0.762192739509437,0.0501063124625607,0.0428494859657363,0.6768703236550686,0.1763718225662696,0.2913811168091251,0.0730081207990206,0.0730081207990206,0.0721323966852871,0.5849116600028774,0.1150788218230191,0.4824596249662401,0.07716432468224,10.949424743652344,0.0,359.0,0.0,1735.7455937999,6.826892238678933e-13,0.0035625427246088,0.0,0.0221057861327977,0.0,257.0,0.0,3.4993851502486306,-0.3502073812594672,-0.9366721892483976,4.0,Other
2020-08-28 13:22:10.300000,-0.0305184058023816,-0.0843861207076452,1.5565379383956732,0.0299214730209697,0.005853971794167,0.005218818065123,-0.0032916415650118,-0.0032916415650118,0.015169804931282,0.7597629636021637,0.0492620497324117,0.0428944748655727,0.674332254540395,0.1717090046600704,0.2889731258589947,0.072167772787679,0.072167772787679,0.0710062067721485,0.5791467283407681,0.1139043214886963,0.482391834876699,0.0772205436952951,10.949424743652344,0.0,359.0,0.0,1735.7455937999,6.826892238678933e-13,0.0035625427246088,0.0,0.0221057861327977,0.0,257.0,0.0,3.4993851502486306,-0.3502073812594672,-0.9366721892483976,4.0,Other
2020-08-28 13:22:11.300000,-0.0571110543672582,-0.0845739145503123,1.5553462642203155,0.0383739568100941,0.0063505498552927,0.0057360658227634,-0.0034139823298684,-0.0034139823298684,0.0145924255475029,0.7503340315929236,0.0489388620309814,0.0411063430827227,0.6689882734105367,0.1664862702282685,0.285550673214097,0.071703042386313,0.071703042386313,0.0703713068994175,0.5691711801714451,0.1125199149007886,0.4835853442775608,0.0777461147555327,10.949424743652344,0.0,359.0,0.0,1735.7455937999,6.826892238678933e-13,0.0035625427246088,0.0,0.0221057861327977,0.0,257.0,0.0,3.4993851502486306,-0.3502073812594672,-0.9366721892483976,4.0,Other
2020-08-28 13:22:12.300000,-0.089775391858692,-0.0843560898346686,1.554928276780838,0.0392026264970493,0.0065108420181641,0.0045425120912362,-0.0034299445727502,-0.0034299445727502,0.0144257308936952,0.7369537827791076,0.048845077253408,0.0408157918358267,0.667884311110677,0.1661362068611616,0.2849293206353415,0.0712457675893119,0.0712457675893119,0.0700299189942242,0.5669421801348232,0.1114127653891728,0.4842507682287705,0.0783681302803383,10.949424743652344,0.0,359.0,0.0,1735.7455937999,6.826892238678933e-13,0.0035625427246088,0.0,0.0221057861327977,0.0,257.0,0.0,3.4993851502486306,-0.3502073812594672,-0.9366721892483976,4.0,Other
