stamp,yaw_mean,pitch_mean,roll_mean,rotation_rate_x_mean,rotation_rate_y_mean,rotation_rate_z_mean,user_acceleration_x_mean,user_acceleration_y_mean,user_acceleration_z_mean,yaw_std,pitch_std,roll_std,rotation_rate_x_std,rotation_rate_y_std,rotation_rate_z_std,user_acceleration_x_std,user_acceleration_y_std,user_acceleration_z_std,rotation_magnitude_mean,acceleration_magnitude_mean,rotation_magnitude_std,acceleration_magnitude_std,speed_mean,speed_std,course_mode,course_std,distance_from_home_mean,distance_from_home_std,distance_from_home_latitude_mean,distance_from_home_latitude_std,distance_from_home_longitude_mean,distance_from_home_longitude_std,bearing_from_home_mode,bearing_from_home_std,time_of_day_radians,time_of_day_sin,time_of_day_cos,day_of_week,activity_label
2020-08-27 15:01:31.100000,2.5814897659019307,-0.9009704120742302,-0.0058526856027001,-0.0016764272709443,0.0008588277234288,0.0036845663705757,-0.0011054316718447,-0.0011054316718447,0.0006062510902195,0.0188229275049898,0.0049984467922326,0.0187379462490303,0.0272488966761401,0.0077869471964649,0.0357921717532349,0.0028335613649167,0.0028335613649167,0.0029290342180684,0.0156925886775645,0.0051841391106759,0.0430662660332747,0.0034023778371225,0.5122811198234558,0.0,,,16.8529096729632,3.555673040978611e-15,0.0001338989257817,0.0,0.0001033813476567,0.0,28.0,3.555673040978611e-15,3.931354140117227,-0.7101853756232851,-0.7040147244559687,3.0,Other
2020-08-27 15:01:32.100000,2.588249166475953,-0.902008954181449,2.95054196650875e-05,-0.0021095079208682,0.0008203505771622,0.0042341489134861,-0.0010703319866526,-0.0010703319866526,0.0007404732624821,0.0534332606493782,0.0110285376130701,0.0458174372139101,0.0282069310552595,0.0083366939783494,0.0362121855611994,0.0028629096638923,0.0028629096638923,0.0031572830543459,0.0165023368370477,0.0054729368980411,0.0438948999732755,0.0055509246319544,0.5122811198234558,0.0,,,16.8529096729632,3.555673040978611e-15,0.0001338989257817,0.0,0.0001033813476567,0.0,28.0,3.555673040978611e-15,3.931354140117227,-0.7101853756232851,-0.7040147244559687,3.0,Other
2020-08-27 15:01:33.100000,2.5956161637076125,-0.9033687460839054,0.0063721958050101,-0.0022417349723816,0.0007520606590221,0.0042141063875687,-0.0010168726204238,-0.0010168726204238,0.0008710777501694,0.0759812565876668,0.016174035106494,0.0641150947496244,0.0282066892063723,0.0083257996784374,0.036212719455538,0.0028789295918885,0.0028789295918885,0.0032922492125125,0.0165000849283302,0.0055537666379113,0.0438973726889846,0.0055651776069159,0.5122811198234558,0.0,,,16.8529096729632,3.555673040978611e-15,0.0001338989257817,0.0,0.0001033813476567,0.0,28.0,3.555673040978611e-15,3.931354140117227,-0.7101853756232851,-0.7040147244559687,3.0,Other
2020-08-27 15:01:34.100000,2.6030309862781085,-0.9048051653606524,0.0127460351432008,-0.0022358139953614,0.0007572921528364,0.0042691763467968,-0.0009610143160066,-0.0009610143160066,0.0009967063905395,0.0930795571368402,0.0200605079175625,0.0782380534626408,0.0282269887991057,0.0083197372210476,0.0362136676903516,0.0028934991797556,0.0028934991797556,0.0033631802891327,0.0165725142679282,0.005620622282213,0.0438878407019593,0.0055719806018433,0.5122811198234558,0.0,,,16.8529096729632,3.555673040978611e-15,0.0001338989257817,0.0,0.0001033813476567,0.0,28.0,3.555673040978611e-15,3.931354140117227,-0.7101853756232851,-0.7040147244559687,3.0,Other
2020-08-27 15:01:35.100000,2.610489258948658,-0.9062811090624868,0.0191495169944041,-0.0022663106644423,0.0006669037638328,0.0042256754679689,-0.0009074336577969,-0.0009074336577969,0.001067926701214,0.1072567737686881,0.0232427825011857,0.0900723735177775,0.0282044113702133,0.0082675566130468,0.0362128376533829,0.0029036199803129,0.0029036199803129,0.0033872350336445,0.0164790690029104,0.005628121206117,0.0438939053763428,0.005565713901852,0.5122811198234558,0.0,,,16.8529096729632,3.555673040978611e-15,0.0001338989257817,0.0,0.0001033813476567,0.0,28.0,3.555673040978611e-15,3.931354140117227,-0.7101853756232851,-0.7040147244559687,3.0,Other
2020-08-27 15:01:36.100000,2.617967272360194,-0.9078371615556632,0.0255474175874791,-0.0022711641869558,0.0007156336322866,0.0042449169960368,-0.0008823149736827,-0.0008823149736827,0.0011519878458064,0.1193838077589505,0.0262307168575493,0.1001570351283433,0.0281828995484258,0.008137695765693,0.0362054304514499,0.0029032116344928,0.0029032116344928,0.0034056284659452,0.0163414657306551,0.0056441875053632,0.043904118941968,0.0055627412485683,0.5122811198234558,0.0,,,16.8529096729632,3.555673040978611e-15,0.0001338989257817,0.0,0.0001033813476567,0.0,28.0,3.555673040978611e-15,3.931354140117227,-0.7101853756232851,-0.7040147244559687,3.0,Other
2020-08-27 15:01:37.100000,2.6254737662793,-0.9094177704186686,0.0319965379577318,-0.0023273215683397,0.0006952939090937,0.0042116050604582,-0.0008361902267682,-0.0008361902267682,0.0011930823226934,0.1300411963794539,0.028913570010411,0.1091026603729043,0.0281989134563194,0.0080138759948316,0.0361985281566958,0.0028962474613357,0.0028962474613357,0.0034057325007737,0.0163093316892022,0.0056364103868059,0.0438973076348486,0.0055621390244439,0.5122811198234558,0.0,,,16.8529096729632,3.555673040978611e-15,0.0001338989257817,0.0,0.0001033813476567,0.0,28.0,3.555673040978611e-15,3.931354140117227,-0.7101853756232851,-0.7040147244559687,3.0,Other
2020-08-27 15:01:38.100000,2.633039315806054,-0.911072197898652,0.0385241981677583,-0.0023695986156976,0.0007169071647699,0.0042691994679258,-0.0008121835635029,-0.0008121835635029,0.0012357349502861,0.1395735065723408,0.0314562563881505,0.1171370693185158,0.0282822927993974,0.0079992763690576,0.0361902109895707,0.0029279570787773,0.0029279570787773,0.0033747200738096,0.0163991044118713,0.0056299563396214,0.0439161091849418,0.005567093022046,0.5122811198234558,0.0,,,16.8529096729632,3.555673040978611e-15,0.0001338989257817,0.0,0.0001033813476567,0.0,28.0,3.555673040978611e-15,3.931354140117227,-0.7101853756232851,-0.7040147244559687,3.0,Other
2020-08-27 15:01:39.100000,2.640638161022929,-0.9127244084032126,0.0450813511446647,-0.0023409252639196,0.0006628405638256,0.0042354932861455,-0.0007884749730494,-0.0007884749730494,0.001284309562153,0.1481337488260103,0.0337417070518342,0.1243388947041942,0.0282965072635714,0.0079548115014017,0.036185892226969,0.0029289709739092,0.0029289709739092,0.0033722062932028,0.016389483952773,0.0056431069100473,0.0439115671088855,0.005562923126433,0.5122811198234558,0.0,,,16.8529096729632,3.555673040978611e-15,0.0001338989257817,0.0,0.0001033813476567,0.0,28.0,3.555673040978611e-15,3.931354140117227,-0.7101853756232851,-0.7040147244559687,3.0,Other
2020-08-27 15:01:40.100000,2.648157350235493,-0.9143554326301804,0.0515560496370386,-0.0022746558989182,0.0006219466428385,0.0041956328806279,-0.0007739774572868,-0.0007739774572868,0.0013036700631933,0.1558623091910465,0.035850754405268,0.1308864348113893,0.0283383621236308,0.007954346443547,0.0361894478191116,0.0029300589315529,0.0029300589315529,0.0033664394615954,0.0164515920932511,0.0056502033610962,0.0439102194727769,0.0055595657710161,0.5122811198234558,0.0,,,16.8529096729632,3.555673040978611e-15,0.0001338989257817,0.0,0.0001033813476567,0.0,28.0,3.555673040978611e-15,3.931354140117227,-0.7101853756232851,-0.7040147244559687,3.0,Other
2020-08-27 15:01:41.100000,2.6556790017843643,-0.9160622608245114,0.0580272197247353,-0.0024213846982108,0.0006308919365073,0.0041435998829605,-0.0007481897457467,-0.0007481897457467,0.0013302430237787,0.1629175391459434,0.0378306115900281,0.1368321432369193,0.0282814988419082,0.0077707259645235,0.0361835074790814,0.002914545841203,0.002914545841203,0.0033475838358886,0.0162855422969178,0.0056338127313413,0.0439008229109804,0.0055610828252173,0.5122811198234558,0.0,,,16.8529096729632,3.555673040978611e-15,0.0001338989257817,0.0,0.0001033813476567,0.0,28.0,3.555673040978611e-15,3.931354140117227,-0.7101853756232851,-0.7040147244559687,3.0,Other
2020-08-27 15:01:42.100000,2.6632219074966508,-0.9178199923772384,0.0645629119302795,-0.0023953801124804,0.0006882172576097,0.0041773369370769,-0.0007331343910063,-0.0007331343910063,0.0013446430497478,0.1693397773386665,0.0396329791234852,0.142269280476501,0.0282757257504925,0.0077163684204219,0.0361756026206027,0.00291039015882,0.00291039015882,0.0033368881606842,0.0162066269954203,0.0056324642914285,0.0439128886045803,0.0055590983928096,0.5122811198234558,0.0,,,16.8529096729632,3.555673040978611e-15,0.0001338989257817,0.0,0.0001033813476567,0.0,28.0,3.555673040978611e-15,3.931354140117227,-0.7101853756232851,-0.7040147244559687,3.0,Other
2020-08-27 15:01:43.100000,2.6707908982246766,-0.919554992741634,0.0711452457838128,-0.0024115163871643,0.0007002896651743,0.004167804472418,-0.0007493841444791,-0.0007493841444791,0.0013399261008086,0.1751137927874049,0.0412420590267706,0.1471384635535941,0.0282867928761356,0.0076799502321604,0.0361729998179862,0.0029195804907371,0.0029195804907371,0.0033232897490348,0.0161686121403011,0.0056389432723394,0.0439256912191815,0.0055481032255599,0.5122811198234558,0.0,,,16.8529096729632,3.555673040978611e-15,0.0001338989257817,0.0,0.0001033813476567,0.0,28.0,3.555673040978611e-15,3.931354140117227,-0.7101853756232851,-0.7040147244559687,3.0,Other
2020-08-27 15:01:44.100000,2.6782788524215118,-0.9212654080248116,0.0776293773388192,-0.0024249550023312,0.0006651957623951,0.0041192784741173,-0.0007237647218434,-0.0007237647218434,0.0013467252452837,0.1804032661315484,0.0426660467023806,0.1516478555353493,0.0282705213531164,0.0075572729428344,0.0361647468276192,0.0029259098198136,0.0029259098198136,0.0033169590275091,0.0160392071033353,0.0056494795258628,0.0439302732345543,0.0055401679524222,0.5122811198234558,0.0,,,16.8529096729632,3.555673040978611e-15,0.0001338989257817,0.0,0.0001033813476567,0.0,28.0,3.555673040978611e-15,3.931354140117227,-0.7101853756232851,-0.7040147244559687,3.0,Other
2020-08-27 15:01:45.100000,2.6857815717103675,-0.9230077015778388,0.0841522461188944,-0.0024296306724506,0.0006635136729549,0.0041198422496955,-0.000733478791305,-0.000733478791305,0.0013569909304429,0.1852594496618855,0.0439852475417185,0.1558121426916817,0.0282621432395544,0.0074584781226536,0.036159696480224,0.0029060541278942,0.0029060541278942,0.0032609527121932,0.0159581994076813,0.0056209868222284,0.0439336776734272,0.005528638570759,0.5122811198234558,0.0,,,16.8529096729632,3.555673040978611e-15,0.0001338989257817,0.0,0.0001033813476567,0.0,28.0,3.555673040978611e-15,3.931354140117227,-0.7101853756232851,-0.7040147244559687,3.0,Other
2020-08-27 15:01:46.100000,2.693305324992404,-0.9247501389357492,0.0907134441939034,-0.0024025581619034,0.0007434102792615,0.0041747372953868,-0.0007373036788822,-0.0007373036788822,0.0013590096534785,0.1896459064225312,0.0451817318331085,0.1595436875275155,0.0282663209365389,0.0074270927568708,0.0361427608504723,0.0029182156032477,0.0029182156032477,0.0032476237965549,0.0159006704607751,0.0056319896935592,0.0439429860884977,0.0055244113546181,0.5122811198234558,0.0,,,16.8529096729632,3.555673040978611e-15,0.0001338989257817,0.0,0.0001033813476567,0.0,28.0,3.555673040978611e-15,3.931354140117227,-0.7101853756232851,-0.7040147244559687,3.0,Other
2020-08-27 15:01:47.100000,2.7008208266510545,-0.9265104924977916,0.0972643119908766,-0.0024804947618859,0.0006650435523642,0.0041272907669713,-0.0007356659768028,-0.0007356659768028,0.0013621036899268,0.1936103362297437,0.0463122008729417,0.1629033851464884,0.0282689180263643,0.0073833125584367,0.0361352253191899,0.0029201409667649,0.0029201409667649,0.0032401004310881,0.0158696733054067,0.0056342170512103,0.0439408956848815,0.0055203669910401,0.5122811198234558,0.0,,,16.8529096729632,3.555673040978611e-15,0.0001338989257817,0.0,0.0001033813476567,0.0,28.0,3.555673040978611e-15,3.931354140117227,-0.7101853756232851,-0.7040147244559687,3.0,Other
2020-08-27 15:01:48.100000,2.70829155460967,-0.9283076609033912,0.1037747684306475,-0.0024925689515154,0.0006964772737456,0.0041018464120597,-0.0007633061927685,-0.0007633061927685,0.0013727709378259,0.1972462224997048,0.0473262295756587,0.1660170390835791,0.0282472110425877,0.0073038512087751,0.0361274224398977,0.0029042839162641,0.0029042839162641,0.0032174080158017,0.0157484123359416,0.005614089837165,0.0439497248094592,0.0055217184346034,0.5122811198234558,0.0,,,16.8529096729632,3.555673040978611e-15,0.0001338989257817,0.0,0.0001033813476567,0.0,28.0,3.555673040978611e-15,3.931354140117227,-0.7101853756232851,-0.7040147244559687,3.0,Other
2020-08-27 15:01:49.100000,2.7157733204360808,-0.9301425758098404,0.1102752269366253,-0.0025004789608216,0.0006732125018882,0.0040491843191649,-0.0007815844876793,-0.0007815844876793,0.0013674674137261,0.2005418014301769,0.0483159767782713,0.1688204472194834,0.0282054631159269,0.0072103758229784,0.0361259787677542,0.0028805976438459,0.0028805976438459,0.0031886616953465,0.0155849818326047,0.0055798218242372,0.0439598400717058,0.005515740517524,0.5122811198234558,0.0,,,16.8529096729632,3.555673040978611e-15,0.0001338989257817,0.0,0.0001033813476567,0.0,28.0,3.555673040978611e-15,3.931354140117227,-0.7101853756232851,-0.7040147244559687,3.0,Other
2020-08-27 15:01:50.100000,2.723166529033426,-0.9319574221993444,0.1166672862311229,-0.0024624050636706,0.0006568808137236,0.0040492949017111,-0.0007879816975053,-0.0007879816975053,0.0013796504642721,0.2035327053125834,0.0492389523693302,0.1713900074581311,0.0281986923398229,0.0071821771595354,0.0361175381083969,0.0028860100516905,0.0028860100516905,0.0031760000446513,0.0154871790013085,0.005577352520003,0.043976174033978,0.0055165874172168,0.5122811198234558,0.0,,,16.8529096729632,3.555673040978611e-15,0.0001338989257817,0.0,0.0001033813476567,0.0,28.0,3.555673040978611e-15,3.931354140117227,-0.7101853756232851,-0.7040147244559687,3.0,Other
2020-08-27 15:01:51.100000,2.730666569782771,-0.9337521663521372,0.1232261716059345,-0.0024964918968222,0.0007272483126264,0.0041220725952537,-0.0008057873826256,-0.0008057873826256,0.0014055757574154,0.2061783356050063,0.0500294255114548,0.1736813703651332,0.0281976609440349,0.0071694786567845,0.0360976867526138,0.0029020594287363,0.0029020594287363,0.003172417946276,0.0154558551782112,0.0055941145990293,0.0439779868784332,0.0055114642235599,0.5122811198234558,0.0,,,16.8529096729632,3.555673040978611e-15,0.0001338989257817,0.0,0.0001033813476567,0.0,28.0,3.555673040978611e-15,3.931354140117227,-0.7101853756232851,-0.7040147244559687,3.0,Other
2020-08-27 15:01:52.100000,2.738202346343169,-0.9355733851823156,0.129810024975008,-0.0025200393607223,0.0007086292295848,0.0041091748468342,-0.0008172141186607,-0.0008172141186607,0.0014270603061713,0.2085249698302522,0.0507409229203879,0.1757128280133248,0.0282164536875228,0.0071556106509342,0.0361000599746112,0.0029289285452848,0.0029289285452848,0.0031749595459856,0.0154849246386175,0.0056312118844563,0.0439793185324904,0.0055004431909673,0.5122811198234558,0.0,,,16.8529096729632,3.555673040978611e-15,0.0001338989257817,0.0,0.0001033813476567,0.0,28.0,3.555673040978611e-15,3.931354140117227,-0.7101853756232851,-0.7040147244559687,3.0,Other
2020-08-27 15:01:53.100000,2.7456783207006343,-0.9373879345403536,0.1362946231443189,-0.0025076765649194,0.0006647548725837,0.0040617628594838,-0.0008225507426777,-0.0008225507426777,0.0014532270427551,0.2106159380854057,0.0513667166776561,0.177551216794252,0.0282474108527436,0.0070850956350816,0.0361027135043454,0.0029304464582365,0.0029304464582365,0.0031476557235488,0.0154771549282159,0.0056194182545639,0.0439868859164232,0.0055000680271053,0.5122811198234558,0.0,,,16.8529096729632,3.555673040978611e-15,0.0001338989257817,0.0,0.0001033813476567,0.0,28.0,3.555673040978611e-15,3.931354140117227,-0.7101853756232851,-0.7040147244559687,3.0,Other
2020-08-27 15:01:54.100000,2.753199722326536,-0.9392098129886556,0.14282075550649,-0.0025463174236705,0.00067132282514,0.0040957257260077,-0.0008147584519251,-0.0008147584519251,0.0014750912364032,0.2123886986280869,0.0519792570772681,0.1790680810697536,0.0282637141588096,0.0070410991217945,0.0360880993984644,0.0029470393177582,0.0029470393177582,0.003153250253611,0.0154507872399486,0.0056328135059555,0.0439930644569822,0.0055006397444467,0.5122811198234558,0.0,,,16.8529096729632,3.555673040978611e-15,0.0001338989257817,0.0,0.0001033813476567,0.0,28.0,3.555673040978611e-15,3.931354140117227,-0.7101853756232851,-0.7040147244559687,3.0,Other
2020-08-27 15:01:55.100000,2.760717202343679,-0.9410542600761832,0.1493305868583549,-0.0025261218594495,0.0006465769218693,0.0040907740923025,-0.0008484317662315,-0.0008484317662315,0.0014987378667872,0.2139172437951721,0.052512626630473,0.1803938213920347,0.0282902865087889,0.0070215505437006,0.036087142528299,0.002923576790789,0.002923576790789,0.0031379827603025,0.0154909060268192,0.0056245092806313,0.0439901037868698,0.0055008898124145,0.5122811198234558,0.0,,,16.8529096729632,3.555673040978611e-15,0.0001338989257817,0.0,0.0001033813476567,0.0,28.0,3.555673040978611e-15,3.931354140117227,-0.7101853756232851,-0.7040147244559687,3.0,Other
2020-08-27 15:01:56.100000,2.768214958876421,-0.942887065811284,0.1558114737490458,-0.0024746684938631,0.0006647320575051,0.0041135264771328,-0.00087501511548,-0.00087501511548,0.0015280360786767,0.2151830356888579,0.0529453706260554,0.1815152906356809,0.0282540561430794,0.0069388722726778,0.036082344668045,0.0029209824214699,0.0029209824214699,0.0031110588929576,0.0153788712815323,0.005610833257834,0.0439886061027371,0.0055031350914649,0.5122811198234558,0.0,,,16.8529096729632,3.555673040978611e-15,0.0001338989257817,0.0,0.0001033813476567,0.0,28.0,3.555673040978611e-15,3.931354140117227,-0.7101853756232851,-0.7040147244559687,3.0,Other
2020-08-27 15:01:57.100000,2.7757700195725072,-0.9446975648303992,0.1623654382865568,-0.0027085435049865,0.0006109760851814,0.0040831800523878,-0.0008769741099011,-0.0008769741099011,0.0015545076816133,0.2161264226536894,0.053320398270631,0.1823427246420597,0.0282252474546133,0.0068170149100596,0.0360742038643747,0.0029195139479643,0.0029195139479643,0.0031001719236292,0.015323393017155,0.0056149355490924,0.0439739610287666,0.0055030904430497,0.5122811198234558,0.0,,,16.8529096729632,3.555673040978611e-15,0.0001338989257817,0.0,0.0001033813476567,0.0,28.0,3.555673040978611e-15,3.931354140117227,-0.7101853756232851,-0.7040147244559687,3.0,Other
2020-08-27 15:01:58.100000,2.783342596893501,-0.9465926436338568,0.1689192714099587,-0.0026299035147191,0.0006607820732385,0.004160549175521,-0.0009042521731032,-0.0009042521731032,0.0015806009785307,0.2168628916929069,0.0536628138053234,0.1830178385632979,0.0282082783066223,0.0067462328267087,0.0360574548397212,0.0029008678426828,0.0029008678426828,0.00309398783592,0.0152198511570717,0.0056014660582495,0.043977642385052,0.0055071629698087,0.5122811198234558,0.0,,,16.8529096729632,3.555673040978611e-15,0.0001338989257817,0.0,0.0001033813476567,0.0,28.0,3.555673040978611e-15,3.931354140117227,-0.7101853756232851,-0.7040147244559687,3.0,Other
2020-08-27 15:01:59.100000,2.790969380721475,-0.9484687100928556,0.1755378898404882,-0.0026543347882463,0.00058241866873,0.0040853208639099,-0.0009015893405566,-0.0009015893405566,0.0015919672669269,0.2172467845361934,0.0539163885505032,0.1833626542948731,0.0281999655521104,0.0066770328618607,0.036057880171035,0.002902783914093,0.002902783914093,0.0030727770715451,0.0151504474552997,0.005600535153884,0.0439793997765047,0.0054991610873054,0.5122811198234558,0.0,,,16.8529096729632,3.555673040978611e-15,0.0001338989257817,0.0,0.0001033813476567,0.0,28.0,3.555673040978611e-15,3.931354140117227,-0.7101853756232851,-0.7040147244559687,3.0,Other
2020-08-27 15:02:00.100000,2.7985111010848187,-0.9503105888251656,0.182035710790572,-0.0025044413656926,0.0005826225067285,0.0040899495192851,-0.000897647896642,-0.000897647896642,0.0016116615936482,0.2174328433914841,0.0541602556083273,0.1835811066771718,0.0281670192897426,0.0065911736698407,0.0360436791174152,0.0028924458191288,0.0028924458191288,0.0030540374937602,0.0149963599180447,0.0055589635077077,0.0439782216906496,0.0055042954426977,0.5122811198234558,0.0,,,16.8529096729632,3.555673040978611e-15,0.0001338989257817,0.0,0.0001033813476567,0.0,28.0,3.555673040978611e-15,3.935717463247213,-0.7132504491541817,-0.7009092642998508,3.0,Other
2020-08-27 15:02:01.100000,2.8060961457933247,-0.9521900724353092,0.1886007374304102,-0.0025414673018016,0.0006098244199761,0.004086296349925,-0.0009106410149726,-0.0009106410149726,0.0016291115724306,0.2173415460609886,0.0543915088892257,0.1835370535331339,0.0279976720995925,0.0062195972220108,0.0359783264812006,0.0028178724393698,0.0028178724393698,0.0030219221777008,0.0145887613882483,0.0054900304741315,0.0439018713102511,0.0054646907026465,0.5122811198234558,0.0,,,16.8529096729632,3.555673040978611e-15,0.0001338989257817,0.0,0.0001033813476567,0.0,28.0,3.555673040978611e-15,3.935717463247213,-0.7132504491541817,-0.7009092642998508,3.0,Other
2020-08-27 15:02:02.100000,2.813592379581115,-0.9541283093653186,0.195083178819736,-0.0024137091311547,0.0005822782094796,0.0040628281789994,-0.0009079204497241,-0.0009079204497241,0.0016485295954242,0.2170472090352989,0.0545218855744422,0.1833083541496344,0.0279836660121885,0.0061479888821781,0.0359744564517544,0.0027878994443249,0.0027878994443249,0.0030036115413839,0.0144611693928388,0.0054580633335662,0.0439121883275798,0.0054569666463081,0.5122811198234558,0.0,,,16.8529096729632,3.555673040978611e-15,0.0001338989257817,0.0,0.0001033813476567,0.0,28.0,3.555673040978611e-15,3.935717463247213,-0.7132504491541817,-0.7009092642998508,3.0,Other
2020-08-27 15:02:03.100000,2.821049658113629,-0.9560392975509664,0.2015175049309898,-0.0024602478315833,0.0005582193665813,0.0040442748696461,-0.0009183226751408,-0.0009183226751408,0.0016690464860785,0.2164924613315143,0.0545656912833769,0.1828908010140215,0.0279703660556468,0.0060418336301487,0.035956558415902,0.0027915393476531,0.0027915393476531,0.0029909194736916,0.0143453243521138,0.0054316831396082,0.0439129407785438,0.0054409573465478,0.5122811198234558,0.0,,,16.8529096729632,3.555673040978611e-15,0.0001338989257817,0.0,0.0001033813476567,0.0,28.0,3.555673040978611e-15,3.935717463247213,-0.7132504491541817,-0.7009092642998508,3.0,Other
2020-08-27 15:02:04.100000,2.8285234164874287,-0.958002717492981,0.2079765254136233,-0.0025791450521401,0.0005635541124569,0.0040218358857095,-0.0009471120904765,-0.0009471120904765,0.0016866317406271,0.2156889194370592,0.0545281112663452,0.1822667995975896,0.0279454346584489,0.0060151903577961,0.0359585145543419,0.0027873184837397,0.0027873184837397,0.0029611291678105,0.0142859768962475,0.0054029882682196,0.0439192285760065,0.0054411735670564,0.5122811198234558,0.0,,,16.8529096729632,3.555673040978611e-15,0.0001338989257817,0.0,0.0001033813476567,0.0,28.0,3.555673040978611e-15,3.935717463247213,-0.7132504491541817,-0.7009092642998508,3.0,Other
2020-08-27 15:02:05.100000,2.8359957233244883,-0.959969686638694,0.2144347450161786,-0.002570543917804,0.000555889880108,0.0040473719665969,-0.0009543827166176,-0.0009543827166176,0.0016879704153279,0.2145955341748088,0.0544047434706465,0.1813821101468198,0.0279221653730164,0.0059813069963894,0.0359543850897609,0.0027887201969158,0.0027887201969158,0.0029392981057298,0.0142193931302597,0.0053777765431569,0.0439198109373052,0.0054329222787839,0.5122811198234558,0.0,,,16.8529096729632,3.555673040978611e-15,0.0001338989257817,0.0,0.0001033813476567,0.0,28.0,3.555673040978611e-15,3.935717463247213,-0.7132504491541817,-0.7009092642998508,3.0,Other
2020-08-27 15:02:06.100000,2.843435027238335,-0.9619248369569192,0.2208929262843887,-0.0025337556665282,0.0005967140127246,0.0040265464525322,-0.0009692038181617,-0.0009692038181617,0.0016804736684046,0.2132700348557891,0.0542447090981538,0.1802897830304809,0.0279280700784096,0.0059662544534127,0.0359441575902887,0.00280463024407,0.00280463024407,0.0029298676903466,0.0141562389572916,0.0053856210713447,0.0439300584143995,0.0054283203489049,0.5122811198234558,0.0,,,16.8529096729632,3.555673040978611e-15,0.0001338989257817,0.0,0.0001033813476567,0.0,28.0,3.555673040978611e-15,3.935717463247213,-0.7132504491541817,-0.7009092642998508,3.0,Other
2020-08-27 15:02:07.100000,2.8508237951408804,-0.9638988148551216,0.2273214760978797,-0.0025188980868919,0.0006003245698154,0.0040385957575634,-0.0009869613906309,-0.0009869613906309,0.0016839520605947,0.2117614701257278,0.0539742439549926,0.1790786746069715,0.0279260448210985,0.0058725237081667,0.0359312032767567,0.0027887338909313,0.0027887338909313,0.0029053355137936,0.0140680183832588,0.0053630393332468,0.0439342320426476,0.0054272262702356,0.5122811198234558,0.0,,,16.8529096729632,3.555673040978611e-15,0.0001338989257817,0.0,0.0001033813476567,0.0,28.0,3.555673040978611e-15,3.935717463247213,-0.7132504491541817,-0.7009092642998508,3.0,Other
2020-08-27 15:02:08.100000,2.8582115585911096,-0.9658842725484026,0.2337459626565456,-0.0025331993880193,0.0005530341866948,0.0039857386905055,-0.0010108310177599,-0.0010108310177599,0.0016836349956207,0.209990768264793,0.053618229781507,0.1776458625350352,0.0279335290598808,0.0058670891191678,0.0359295731148025,0.0027644193576211,0.0027644193576211,0.0028663192821936,0.0140545718955953,0.0053342220225494,0.0439366081510761,0.0054125239688802,0.5122811198234558,0.0,,,16.8529096729632,3.555673040978611e-15,0.0001338989257817,0.0,0.0001033813476567,0.0,28.0,3.555673040978611e-15,3.935717463247213,-0.7132504491541817,-0.7009092642998508,3.0,Other
2020-08-27 15:02:09.100000,2.865561001114361,-0.9678557272163684,0.2401005774249764,-0.0024566239043574,0.0005449930825014,0.0039982673508299,-0.001029413993069,-0.001029413993069,0.0017023211509336,0.2079444983169651,0.0531884673412124,0.1759737570036014,0.0279430580444267,0.0058739671644607,0.035925348277204,0.0027573931133822,0.0027573931133822,0.0028496982960873,0.014056203218796,0.0053242979365685,0.0439362930331566,0.0054109142436837,0.5122811198234558,0.0,,,16.8529096729632,3.555673040978611e-15,0.0001338989257817,0.0,0.0001033813476567,0.0,28.0,3.555673040978611e-15,3.935717463247213,-0.7132504491541817,-0.7009092642998508,3.0,Other
2020-08-27 15:02:10.100000,2.8729260281199425,-0.9697849884901985,0.2464820443618807,-0.0024371872611108,0.0005728922425591,0.0040546110943548,-0.0010378734517017,-0.0010378734517017,0.0017392454845536,0.2055628114505157,0.0526717831741638,0.1739819829274397,0.0279491104489098,0.0058640660389726,0.0359178261349366,0.0027560965715528,0.0027560965715528,0.0028359451035236,0.0140520867414552,0.0053329552292622,0.0439384323907108,0.005404170163971,0.5122811198234558,0.0,,,16.8529096729632,3.555673040978611e-15,0.0001338989257817,0.0,0.0001033813476567,0.0,28.0,3.555673040978611e-15,3.935717463247213,-0.7132504491541817,-0.7009092642998508,3.0,Other
2020-08-27 15:02:11.100000,2.8802897854771667,-0.9717157807901576,0.2528724823953965,-0.0024900875657102,0.0005737523468499,0.0040281715430164,-0.0010427292219414,-0.0010427292219414,0.0017797861638759,0.2028929332606942,0.0520637325563572,0.1717721210796877,0.0279690707580376,0.0058683355225928,0.0359167695275738,0.0027582245892331,0.0027582245892331,0.0028054700968406,0.0141012421690875,0.0053391081044276,0.0439356119268301,0.005399202899961,0.5122811198234558,0.0,,,16.8529096729632,3.555673040978611e-15,0.0001338989257817,0.0,0.0001033813476567,0.0,28.0,3.555673040978611e-15,3.935717463247213,-0.7132504491541817,-0.7009092642998508,3.0,Other
2020-08-27 15:02:12.100000,2.887585921612833,-0.9736566891190216,0.2591675828948799,-0.0023192842560704,0.0005320001013124,0.0039693506937411,-0.0010621066820403,-0.0010621066820403,0.0018064073238912,0.2000364856047106,0.0514677249420729,0.1694598847486143,0.0280064116453942,0.0058424311526948,0.0359140957768352,0.0027710754954735,0.0027710754954735,0.0027997801043548,0.0141067678226355,0.0053521894460455,0.0439367312033965,0.0053979928520206,0.5122811198234558,0.0,,,16.8529096729632,3.555673040978611e-15,0.0001338989257817,0.0,0.0001033813476567,0.0,28.0,3.555673040978611e-15,3.935717463247213,-0.7132504491541817,-0.7009092642998508,3.0,Other
2020-08-27 15:02:13.100000,2.894894607055207,-0.975579801444801,0.2654885735101197,-0.0023751708379824,0.0006020660492779,0.00404892796759,-0.0011094476835501,-0.0011094476835501,0.0018252286557944,0.1968479500901293,0.0507611965435736,0.1668580627491994,0.0279803694736055,0.0058141358306986,0.035890026949837,0.0027430824743546,0.0027430824743546,0.0027750779041776,0.0139784324555775,0.005343743930784,0.0439489717537573,0.0053911114191643,0.5122811198234558,0.0,,,16.8529096729632,3.555673040978611e-15,0.0001338989257817,0.0,0.0001033813476567,0.0,28.0,3.555673040978611e-15,3.935717463247213,-0.7132504491541817,-0.7009092642998508,3.0,Other
2020-08-27 15:02:14.100000,2.902244692039172,-0.9775463714079928,0.2718725855719006,-0.0024144187222502,0.0006050686448806,0.004017761196033,-0.0011532386011767,-0.0011532386011767,0.0018337793437494,0.1932522765265659,0.0499051273797173,0.1638955537022045,0.0280007907987225,0.0058302301342122,0.0358968959753399,0.0027398574286086,0.0027398574286086,0.0027623748363934,0.0140043067827032,0.0053421207414204,0.0439607858669032,0.0053880704409831,0.5122811198234558,0.0,,,16.8529096729632,3.555673040978611e-15,0.0001338989257817,0.0,0.0001033813476567,0.0,28.0,3.555673040978611e-15,3.935717463247213,-0.7132504491541817,-0.7009092642998508,3.0,Other
2020-08-27 15:02:15.100000,2.9096036540490022,-0.9794996045095948,0.2782657052783106,-0.0023772025685416,0.0005762032577969,0.0040313937060516,-0.0011762507792915,-0.0011762507792915,0.0018562561462008,0.1893419549015579,0.0489524844600134,0.1606947140627057,0.0280696744888682,0.0058215499989442,0.0358976618144233,0.0027543008666445,0.0027543008666445,0.0027521302524827,0.0140910444124832,0.0053708711831964,0.0439752547278213,0.0053889677331879,0.5122811198234558,0.0,,,16.8529096729632,3.555673040978611e-15,0.0001338989257817,0.0,0.0001033813476567,0.0,28.0,3.555673040978611e-15,3.935717463247213,-0.7132504491541817,-0.7009092642998508,3.0,Other
2020-08-27 15:02:16.100000,2.916864722421681,-0.981417750508932,0.2845540898902413,-0.0023598155136934,0.0005429177347434,0.0039299009340705,-0.0012162903233891,-0.0012162903233891,0.0018611255779043,0.1851808711161939,0.0480257947938507,0.1573295947450313,0.0281336591491631,0.0058153940637904,0.0359083471290865,0.0027949967475767,0.0027949967475767,0.0027703708122359,0.0141832281592971,0.005387840030579,0.0439838023305757,0.005398057283164,0.5122811198234558,0.0,,,16.8529096729632,3.555673040978611e-15,0.0001338989257817,0.0,0.0001033813476567,0.0,28.0,3.555673040978611e-15,3.935717463247213,-0.7132504491541817,-0.7009092642998508,3.0,Other
2020-08-27 15:02:17.100000,2.9241178606988587,-0.9832909572838546,0.2908294291375747,-0.0023743753164957,0.0005643451051746,0.0039464782814211,-0.0012316821691596,-0.0012316821691596,0.0018916907604045,0.1806349216379154,0.0469791247277681,0.1536304982342601,0.0281726070995435,0.0057793939576287,0.0359124403118165,0.0028355141987365,0.0028355141987365,0.0027687334023084,0.0142412602574618,0.0053976913668896,0.043991087248819,0.0054026508938491,0.5122811198234558,0.0,,,16.8529096729632,3.555673040978611e-15,0.0001338989257817,0.0,0.0001033813476567,0.0,28.0,3.555673040978611e-15,3.935717463247213,-0.7132504491541817,-0.7009092642998508,3.0,Other
2020-08-27 15:02:18.100000,2.931378395505832,-0.9852399583565018,0.2971227600703329,-0.0024145039808804,0.0005010655653444,0.0039417085849126,-0.0012503704567518,-0.0012503704567518,0.0019300386631944,0.1756433039507342,0.0457354689125762,0.1495480893014208,0.0281766163202121,0.0057886256569332,0.0359030125130288,0.0028568470555933,0.0028568470555933,0.0027766069539717,0.0142325087640715,0.0053930189901566,0.0439910022794255,0.0054010085441781,0.5122811198234558,0.0,,,16.8529096729632,3.555673040978611e-15,0.0001338989257817,0.0,0.0001033813476567,0.0,28.0,3.555673040978611e-15,3.935717463247213,-0.7132504491541817,-0.7009092642998508,3.0,Other
2020-08-27 15:02:19.100000,2.938574381556964,-0.9871660566667154,0.3033254637918319,-0.0024613383878487,0.0005025526844956,0.0039047412252744,-0.0012552575913324,-0.0012552575913324,0.0019725309235482,0.1703827744357742,0.0444920182039479,0.1452458633722394,0.028215860142779,0.0057875803247766,0.0359056779500157,0.0028881217022425,0.0028881217022425,0.0027731709622454,0.0142679831880537,0.0054369746925321,0.0440059950648494,0.0053967614720929,0.5122811198234558,0.0,,,16.8529096729632,3.555673040978611e-15,0.0001338989257817,0.0,0.0001033813476567,0.0,28.0,3.555673040978611e-15,3.935717463247213,-0.7132504491541817,-0.7009092642998508,3.0,Other
2020-08-27 15:02:20.100000,2.945805758287426,-0.9891464277333308,0.309590306863291,-0.0025294603758217,0.0005653979668948,0.0038947783353987,-0.0012798618134761,-0.0012798618134761,0.0020009749344303,0.1645737188301596,0.0430281955734054,0.1404128182392938,0.0281784802589191,0.0057393764781578,0.0358906248383822,0.0028311483882802,0.0028311483882802,0.0027422157428196,0.014128768046999,0.005374059254853,0.0440121912071378,0.0053650770892085,0.5122811198234558,0.0,,,16.8529096729632,3.555673040978611e-15,0.0001338989257817,0.0,0.0001033813476567,0.0,28.0,3.555673040978611e-15,3.935717463247213,-0.7132504491541817,-0.7009092642998508,3.0,Other
2020-08-27 15:02:21.100000,2.953061924401218,-0.9911391705820048,0.3159072451462377,-0.0025268304401918,0.0005883062502428,0.003890367191883,-0.0013279680925081,-0.0013279680925081,0.0020244976446751,0.1582141727239272,0.0414310536979199,0.1350502462460939,0.0281764364664271,0.0057404048562331,0.0358896845072599,0.0028207541091354,0.0028207541091354,0.0027366581411004,0.0141125288944106,0.0053785544236317,0.0440152273582988,0.0053681075661231,0.5122811198234558,0.0,,,16.8529096729632,3.555673040978611e-15,0.0001338989257817,0.0,0.0001033813476567,0.0,28.0,3.555673040978611e-15,3.935717463247213,-0.7132504491541817,-0.7009092642998508,3.0,Other
2020-08-27 15:02:22.100000,2.960297091233353,-0.9930907566714008,0.3222072853911327,-0.0025062738869729,0.0005569420991226,0.0038371457499041,-0.0013719845110683,-0.0013719845110683,0.0020381739849655,0.1512664667862389,0.0397214436583751,0.129207223086396,0.028191490267773,0.0056912695307846,0.0358809615258802,0.0028298893477725,0.0028298893477725,0.0027248314601344,0.0141100281145131,0.0054049579894806,0.044005910555318,0.0053653907403879,0.5122811198234558,0.0,,,16.8529096729632,3.555673040978611e-15,0.0001338989257817,0.0,0.0001033813476567,0.0,28.0,3.555673040978611e-15,3.935717463247213,-0.7132504491541817,-0.7009092642998508,3.0,Other
2020-08-27 15:02:23.100000,2.9674547224393897,-0.9950080662221956,0.3284379218785578,-0.0025122024044518,0.0005389877006925,0.0038145511661394,-0.0014252800884936,-0.0014252800884936,0.0020565392570368,0.1437948686683737,0.0378765604334278,0.1229679520910607,0.0281919901522641,0.0056804818444386,0.0358799510317557,0.0028537224637438,0.0028537224637438,0.0027207520155453,0.0140838748260666,0.0054494829586848,0.0440105517970634,0.0053567191021809,0.5122811198234558,0.0,,,16.8529096729632,3.555673040978611e-15,0.0001338989257817,0.0,0.0001033813476567,0.0,28.0,3.555673040978611e-15,3.935717463247213,-0.7132504491541817,-0.7009092642998508,3.0,Other
2020-08-27 15:02:24.100000,2.974675545081521,-0.9969540682192056,0.3347399016003901,-0.0026005173641289,0.000574136549954,0.0038535748333352,-0.0014699476084574,-0.0014699476084574,0.0020685895112111,0.1353316851622359,0.0357447397968213,0.1158485870084923,0.0281884430521952,0.0056405328422576,0.0358723242605757,0.0028324496874333,0.0028324496874333,0.0026739089278665,0.0140610415480263,0.0054236876894313,0.0440132264478393,0.0053508882627843,0.5122811198234558,0.0,,,16.8529096729632,3.555673040978611e-15,0.0001338989257817,0.0,0.0001033813476567,0.0,28.0,3.555673040978611e-15,3.935717463247213,-0.7132504491541817,-0.7009092642998508,3.0,Other
2020-08-27 15:02:25.100000,2.9818911532594043,-0.9988683093704916,0.3410276722026595,-0.0025282654347217,0.0004881583231682,0.0037532425659883,-0.0014947944889449,-0.0014947944889449,0.0020958523385337,0.1258960387621441,0.0334064504464426,0.1079434047171574,0.0281774514033151,0.0056356819648861,0.0358696211215795,0.0028442382765452,0.0028442382765452,0.0026422061218908,0.0139817679860931,0.005422874754763,0.0440147194579754,0.005341827425496,0.5122811198234558,0.0,,,16.8529096729632,3.555673040978611e-15,0.0001338989257817,0.0,0.0001033813476567,0.0,28.0,3.555673040978611e-15,3.935717463247213,-0.7132504491541817,-0.7009092642998508,3.0,Other
2020-08-27 15:02:26.100000,2.98904708419584,-1.0007425249614652,0.3472291891542131,-0.0025411821412117,0.0004647242760722,0.0038218707804678,-0.001552587365747,-0.001552587365747,0.0021249644966569,0.1154257476792431,0.0309427586442899,0.0992070398087132,0.0281744739475216,0.0056350577710426,0.0358547011912595,0.0028526146575827,0.0028526146575827,0.0026494357979546,0.013971921189528,0.0054515223771523,0.0440101153732181,0.0053459100100579,0.5122811198234558,0.0,,,16.8529096729632,3.555673040978611e-15,0.0001338989257817,0.0,0.0001033813476567,0.0,28.0,3.555673040978611e-15,3.935717463247213,-0.7132504491541817,-0.7009092642998508,3.0,Other
2020-08-27 15:02:27.100000,2.9962371819824627,-1.002643688000776,0.3534872621637203,-0.0025318082183376,0.0004697643389333,0.0038019008016347,-0.0015916448464607,-0.0015916448464607,0.0021439060791954,0.1032442867549492,0.0279635662381619,0.0889385383033524,0.028197101237964,0.0055672913341858,0.0358341060815757,0.0028396568993069,0.0028396568993069,0.0026341861318629,0.0139258582206791,0.0054133865346637,0.0440116119869604,0.0053232415908349,0.5122811198234558,0.0,,,16.8529096729632,3.555673040978611e-15,0.0001338989257817,0.0,0.0001033813476567,0.0,28.0,3.555673040978611e-15,3.935717463247213,-0.7132504491541817,-0.7009092642998508,3.0,Other
2020-08-27 15:02:28.100000,3.0034493787118084,-1.0045418375839608,0.3597679549019269,-0.0026232896468752,0.0004753961914316,0.0038083730410387,-0.0016367715254996,-0.0016367715254996,0.0021500448121405,0.0889211472769989,0.0245063878518188,0.0768928061857493,0.02820127328901,0.0055445116978861,0.0358273320792608,0.0028134249410671,0.0028134249410671,0.0026099324859593,0.0139291710297151,0.0053819209524919,0.0440108321667693,0.005304487242981,0.5122811198234558,0.0,,,16.8529096729632,3.555673040978611e-15,0.0001338989257817,0.0,0.0001033813476567,0.0,28.0,3.555673040978611e-15,3.935717463247213,-0.7132504491541817,-0.7009092642998508,3.0,Other
2020-08-27 15:02:29.100000,3.010488659887266,-1.0064513292070634,0.3659050406519317,-0.0025156137460653,0.0004026475842862,0.0036032484986117,-0.0016834609793148,-0.0016834609793148,0.0021626808976571,0.0722045680106744,0.0204619801662113,0.0627415593969483,0.028200860213852,0.0055018698855778,0.0357472418744411,0.0027850224314029,0.0027850224314029,0.002562426231125,0.0137724970200203,0.0053505634956273,0.0439651324814745,0.0052837828295947,0.5122811198234558,0.0,,,16.8529096729632,3.555673040978611e-15,0.0001338989257817,0.0,0.0001033813476567,0.0,28.0,3.555673040978611e-15,3.935717463247213,-0.7132504491541817,-0.7009092642998508,3.0,Other
2020-08-27 15:02:30.100000,3.017436547803006,-1.0083665168920095,0.3719465696902174,-0.0026440318695543,0.0004506239267732,0.0036794704918946,-0.0017018880378981,-0.0017018880378981,0.0021989105049266,0.0499591488010033,0.0152953376380565,0.0441509336304536,0.0282419536630371,0.0054884355865702,0.0357351917130557,0.0027749630244838,0.0027749630244838,0.002536541118345,0.0138577197274077,0.0053462536880942,0.0439675490063489,0.0052840050237775,0.5122811198234558,0.0,,,16.8529096729632,3.555673040978611e-15,0.0001338989257817,0.0,0.0001033813476567,0.0,28.0,3.555673040978611e-15,3.935717463247213,-0.7132504491541817,-0.7009092642998508,3.0,Other
2020-08-27 15:02:31.100000,3.0237903906382657,-1.0102911801286625,0.3775792794794885,-0.0019109662631511,0.0003258133967238,0.0013699949282793,-0.0017731441262359,-0.0017731441262359,0.0022173878456312,0.0101627742771554,0.0072276969477728,0.0120573216109485,0.0257365926043214,0.0047718932136225,0.0201425366369032,0.0027463741898831,0.0027463741898831,0.0024697299645898,0.0114465629071437,0.0051996738142725,0.0310687462640559,0.0049389670429803,0.5122811198234558,0.0,,,16.8529096729632,3.555673040978611e-15,0.0001338989257817,0.0,0.0001033813476567,0.0,28.0,3.555673040978611e-15,3.935717463247213,-0.7132504491541817,-0.7009092642998508,3.0,Other
2020-08-27 15:02:32.100000,3.024940463746844,-1.0110856680425748,0.3788564033099696,-0.0005233257640146,0.0003240280683941,6.810924892132338e-05,-0.0018247044622005,-0.0018247044622005,0.0020937781266483,0.0027075397935189,0.0052758722231126,0.0074621889804757,0.0101889516801399,0.0034516030013238,0.0042671067332524,0.0026919077182791,0.0026919077182791,0.0020921115500275,0.0093760358798662,0.0048776868871096,0.0068017700644074,0.002074998288269,0.5122811198234558,0.0,,,16.8529096729632,3.555673040978611e-15,0.0001338989257817,0.0,0.0001033813476567,0.0,28.0,3.555673040978611e-15,3.935717463247213,-0.7132504491541817,-0.7009092642998508,3.0,Other
2020-08-27 15:02:33.100000,3.02522517599401,-1.0115489236725348,0.3794524326994891,-0.0003883591907318,0.0003586363143437,4.3230186667472045e-05,-0.0018830274087616,-0.0018830274087616,0.0019817716765919,0.0019313776987728,0.0050038561467379,0.0066265174990138,0.0101521727561635,0.0034286649930648,0.0042413734254676,0.0026712738353542,0.0026712738353542,0.0019364073246448,0.0093099147743135,0.0048094140687176,0.0068025299545087,0.0019975206762322,0.5122811198234558,0.0,,,16.8529096729632,3.555673040978611e-15,0.0001338989257817,0.0,0.0001033813476567,0.0,28.0,3.555673040978611e-15,3.935717463247213,-0.7132504491541817,-0.7009092642998508,3.0,Other
2020-08-27 15:02:34.100000,3.0254067414612225,-1.011979002127433,0.3799423265476988,-0.0004046815625715,0.0003516497136947,-1.1576673933328628e-05,-0.0019547406974528,-0.0019547406974528,0.0018941826015065,0.0015236519283528,0.0047758373083704,0.0060680728752259,0.0101161736532229,0.0034159202889544,0.0041660312954156,0.002637912263165,0.002637912263165,0.0018322136666797,0.0092507840892098,0.0047471534885437,0.0067771454846566,0.0019463772951913,0.5122811198234558,0.0,,,16.8529096729632,3.555673040978611e-15,0.0001338989257817,0.0,0.0001033813476567,0.0,28.0,3.555673040978611e-15,3.935717463247213,-0.7132504491541817,-0.7009092642998508,3.0,Other
2020-08-27 15:02:35.100000,3.025511160864806,-1.0123989571152432,0.3803360647151553,-0.0003436582516289,0.0003609440712484,1.5046713662994907e-05,-0.0020052462369947,-0.0020052462369947,0.0018445045598929,0.0014071178065179,0.0044732469890136,0.0057372114387691,0.0101343278338025,0.0034177254770058,0.0041845882411977,0.0026053105286761,0.0026053105286761,0.0017923172566815,0.0092534813330782,0.0047215403603739,0.0068099648225749,0.0019300258436856,0.5122811198234558,0.0,,,16.8529096729632,3.555673040978611e-15,0.0001338989257817,0.0,0.0001033813476567,0.0,28.0,3.555673040978611e-15,3.935717463247213,-0.7132504491541817,-0.7009092642998508,3.0,Other
2020-08-27 15:02:36.100000,3.0255888670732496,-1.0127605583624115,0.3807146031775212,-0.0003774652634119,0.0003691288548058,-4.8622612170450124e-06,-0.0020391373785085,-0.0020391373785085,0.00178548291995,0.0013557029521996,0.0044032905392912,0.0054059204219393,0.0102332903916848,0.0034375207804948,0.0042207723314358,0.0026048687048975,0.0026048687048975,0.0017528589417498,0.009352652251628,0.0047072100091872,0.0068566051241361,0.0019408642361303,0.5122811198234558,0.0,,,16.8529096729632,3.555673040978611e-15,0.0001338989257817,0.0,0.0001033813476567,0.0,28.0,3.555673040978611e-15,3.935717463247213,-0.7132504491541817,-0.7009092642998508,3.0,Other
2020-08-27 15:02:37.100000,3.0256479881369134,-1.0131312720787506,0.3810252835617684,-0.000370674590718,0.0003231287238105,-8.488952967892546e-06,-0.0020724662181342,-0.0020724662181342,0.0017587524682233,0.0013544481503836,0.0044709491226753,0.0051370002770513,0.0101342987993444,0.0034240333031917,0.0041929055996799,0.0025942027371187,0.0025942027371187,0.001738180323819,0.0092930250963272,0.0047111351928208,0.0067636167329352,0.0019441333128439,0.5122811198234558,0.0,,,16.8529096729632,3.555673040978611e-15,0.0001338989257817,0.0,0.0001033813476567,0.0,28.0,3.555673040978611e-15,3.935717463247213,-0.7132504491541817,-0.7009092642998508,3.0,Other
2020-08-27 15:02:38.100000,3.0256773009276428,-1.013419735947385,0.381291105599451,-0.0002044673471365,0.0003730201173245,1.740157286545018e-05,-0.0020865532949244,-0.0020865532949244,0.0017326155835498,0.0013738576728479,0.0045518545809099,0.0049775834328326,0.009874384409909,0.003378205671969,0.0041640210437663,0.0025556756418201,0.0025556756418201,0.0017297176826791,0.0091502077784374,0.0046858433222165,0.0065246089439949,0.0019213754761645,0.5122811198234558,0.0,,,16.8529096729632,3.555673040978611e-15,0.0001338989257817,0.0,0.0001033813476567,0.0,28.0,3.555673040978611e-15,3.935717463247213,-0.7132504491541817,-0.7009092642998508,3.0,Other
2020-08-27 15:02:39.100000,3.0256638743119706,-1.0136554643834093,0.3815336231136084,-0.0002588724055809,0.0002987849395939,3.095505528226267e-05,-0.0021213802715109,-0.0021213802715109,0.0017096432493053,0.0013646160522455,0.0045587948986511,0.0048318410288609,0.0098691210463847,0.003435928098887,0.0041746050052184,0.002565967222623,0.002565967222623,0.001733815384633,0.0091665514378687,0.0047048902305287,0.0065287271878896,0.0019280858325459,0.5122811198234558,0.0,,,16.8529096729632,3.555673040978611e-15,0.0001338989257817,0.0,0.0001033813476567,0.0,28.0,3.555673040978611e-15,3.935717463247213,-0.7132504491541817,-0.7009092642998508,3.0,Other
2020-08-27 15:02:40.100000,3.025676099710576,-1.0139047516364226,0.3817584706027178,-0.0002157259538782,0.0003271485901997,1.9378597908551866e-05,-0.0021394380366742,-0.0021394380366742,0.0017005462019693,0.0013752936160716,0.0046255451351568,0.0046865137883133,0.009994771046123,0.003404479949393,0.0042008294165623,0.0025722435174064,0.0025722435174064,0.001727892629847,0.0092504674325477,0.0047109860850554,0.0066010097303468,0.0019342402495137,0.5122811198234558,0.0,,,16.8529096729632,3.555673040978611e-15,0.0001338989257817,0.0,0.0001033813476567,0.0,28.0,3.555673040978611e-15,3.935717463247213,-0.7132504491541817,-0.7009092642998508,3.0,Other
2020-08-27 15:02:41.100000,3.025668039893152,-1.0141587102671037,0.3819706555511709,-0.0002823715972188,0.0003030426581754,1.305551810527865e-05,-0.0021402768902294,-0.0021402768902294,0.0016840556496986,0.0013685603412605,0.00475723903313,0.0045197305978214,0.0100396188261321,0.0034144651725514,0.0042068176115477,0.0025902316772565,0.0025902316772565,0.001721661712881,0.0092825127586372,0.0047147505933287,0.0066342450011894,0.0019354105594309,0.5122811198234558,0.0,,,16.8529096729632,3.555673040978611e-15,0.0001338989257817,0.0,0.0001033813476567,0.0,28.0,3.555673040978611e-15,3.935717463247213,-0.7132504491541817,-0.7009092642998508,3.0,Other
2020-08-27 15:02:42.100000,3.0256688971686088,-1.014426921052663,0.3821632836305361,-0.0003345345515763,0.0003046094185785,2.7756586735959253e-05,-0.0021330449426431,-0.0021330449426431,0.001674334737108,0.0013694678312253,0.0049416221513332,0.0044002372658782,0.0100411596065992,0.0034219813678741,0.0042176144323164,0.0025808869243076,0.0025808869243076,0.0017259294075561,0.0092994423033128,0.0047178500404746,0.0066260974567042,0.001931406255095,0.5122811198234558,0.0,,,16.8529096729632,3.555673040978611e-15,0.0001338989257817,0.0,0.0001033813476567,0.0,28.0,3.555673040978611e-15,3.935717463247213,-0.7132504491541817,-0.7009092642998508,3.0,Other
2020-08-27 15:02:43.100000,3.025692823722636,-1.0147343517936604,0.3823503443534283,-0.0002895644385547,0.0002776134477156,2.872661188455556e-05,-0.0021197093331476,-0.0021197093331476,0.0016796380132684,0.0013825449244907,0.0051272427336722,0.0042270800747996,0.0100348096252323,0.0034405538904798,0.0042053502474674,0.0025789112814968,0.0025789112814968,0.0017243828910249,0.009306717727353,0.0047171186049824,0.0066047289413805,0.0019231959590924,0.5122811198234558,0.0,,,16.8529096729632,3.555673040978611e-15,0.0001338989257817,0.0,0.0001033813476567,0.0,28.0,3.555673040978611e-15,3.935717463247213,-0.7132504491541817,-0.7009092642998508,3.0,Other
2020-08-27 15:02:44.100000,3.025719815006669,-1.0150357388616995,0.3825206377492371,-0.0002487356582355,0.0002718589504167,5.659712563747552e-05,-0.0021315900959111,-0.0021315900959111,0.0016795564907759,0.0013845836061204,0.0051897015288563,0.0040404479970976,0.0100217982093421,0.0034480238854223,0.0041988168124907,0.002567411088925,0.002567411088925,0.0017235073969817,0.0092994745365179,0.0047141166765602,0.0065931951211923,0.0019177783168131,0.5122811198234558,0.0,,,16.8529096729632,3.555673040978611e-15,0.0001338989257817,0.0,0.0001033813476567,0.0,28.0,3.555673040978611e-15,3.935717463247213,-0.7132504491541817,-0.7009092642998508,3.0,Other
2020-08-27 15:02:45.100000,3.025729679823318,-1.015307945836205,0.3826651255074833,-0.0002375128647985,0.0002541534615038,5.0188894127920766e-05,-0.0021294954786086,-0.0021294954786086,0.0016919611000181,0.0013841358977768,0.0051925143078015,0.0039122023361237,0.0100347367390834,0.0034531860837658,0.0041977367498859,0.0025756316436529,0.0025756316436529,0.0017114510349077,0.0093119606364096,0.0047215687971916,0.0065960615979877,0.0019157761404986,0.5122811198234558,0.0,,,16.8529096729632,3.555673040978611e-15,0.0001338989257817,0.0,0.0001033813476567,0.0,28.0,3.555673040978611e-15,3.935717463247213,-0.7132504491541817,-0.7009092642998508,3.0,Other
2020-08-27 15:02:46.100000,3.0257494546807746,-1.015583239557739,0.3828043240229421,-0.0002852505089997,0.0002271543851993,2.101471859918301e-05,-0.0021015007836052,-0.0021015007836052,0.0016899746091115,0.0013792265054186,0.0051802157807162,0.0037566674165428,0.0100303276867779,0.0034583354323529,0.0041965712676543,0.0025832098077517,0.0025832098077517,0.0017052331443148,0.0093147202123621,0.0047186058073309,0.0065881544822995,0.0019147971338243,0.5122811198234558,0.0,,,16.8529096729632,3.555673040978611e-15,0.0001338989257817,0.0,0.0001033813476567,0.0,28.0,3.555673040978611e-15,3.935717463247213,-0.7132504491541817,-0.7009092642998508,3.0,Other
2020-08-27 15:02:47.100000,3.0257793046075374,-1.0158503703190365,0.3829315793196889,-0.0002014887156569,0.0002213168049389,4.610812993481406e-05,-0.0020814795487136,-0.0020814795487136,0.0016863254858134,0.0013567043174964,0.0051823303333756,0.0035600788820765,0.0099812909924204,0.0034503887269409,0.0041643103879718,0.0025928392659584,0.0025928392659584,0.0017023039771044,0.0092433899857698,0.0047238278478792,0.0065865037783067,0.0019097907660367,0.5122811198234558,0.0,,,16.8529096729632,3.555673040978611e-15,0.0001338989257817,0.0,0.0001033813476567,0.0,28.0,3.555673040978611e-15,3.935717463247213,-0.7132504491541817,-0.7009092642998508,3.0,Other
2020-08-27 15:02:48.100000,3.025815965530281,-1.016095831965448,0.3830620976732098,-0.0002090814554391,0.0002568927074405,5.978913303656663e-05,-0.0020769050409908,-0.0020769050409908,0.0016931846812243,0.0013373777866122,0.005144735101176,0.0033942011905154,0.0100295404037478,0.0034802783584228,0.0041792920295035,0.0025966139373139,0.0025966139373139,0.0017074185449736,0.0092932596372163,0.0047209872139636,0.0066162947852911,0.0019012439251882,0.5122811198234558,0.0,,,16.8529096729632,3.555673040978611e-15,0.0001338989257817,0.0,0.0001033813476567,0.0,28.0,3.555673040978611e-15,3.935717463247213,-0.7132504491541817,-0.7009092642998508,3.0,Other
2020-08-27 15:02:49.100000,3.025857130620325,-1.0163452041129304,0.3832064386017112,-0.0001728453366597,0.0002072416935518,7.478931117585817e-05,-0.0020335969606572,-0.0020335969606572,0.0017063741676025,0.0013305437564545,0.0052073756897932,0.0032073798477203,0.0103857645313983,0.0035391855392293,0.004246317436234,0.0026441803943764,0.0026441803943764,0.0017175484706266,0.0095491979001985,0.0047547115753151,0.0068673532418556,0.0019158343460873,0.5122811198234558,0.0,,,16.8529096729632,3.555673040978611e-15,0.0001338989257817,0.0,0.0001033813476567,0.0,28.0,3.555673040978611e-15,3.935717463247213,-0.7132504491541817,-0.7009092642998508,3.0,Other
2020-08-27 15:02:50.100000,3.0259243595024907,-1.0165781967850176,0.3833361741111996,-0.0001629811631029,0.0001875253234635,9.979182015949387e-05,-0.0020026955474632,-0.0020026955474632,0.0016985481074962,0.001303589641264,0.0052492879030963,0.0029779445903674,0.0104005034121471,0.0035500470982024,0.0042646733944975,0.0026801229134275,0.0026801229134275,0.0017188129934985,0.0095808499509363,0.0047802580892945,0.0068619878816181,0.0019069927296258,0.5122811198234558,0.0,,,16.8529096729632,3.555673040978611e-15,0.0001338989257817,0.0,0.0001033813476567,0.0,28.0,3.555673040978611e-15,3.935717463247213,-0.7132504491541817,-0.7009092642998508,3.0,Other
2020-08-27 15:02:51.100000,3.02598204489754,-1.0168334592797,0.3834351448717212,-0.0001947812026307,0.000145235002047,5.489097638505032e-05,-0.0019675978333898,-0.0019675978333898,0.0016990813756742,0.0012943979483416,0.0052395436092231,0.0028384505920688,0.0104636180623614,0.0035266941936699,0.0042678257711664,0.0026869624983759,0.0026869624983759,0.0017114413313459,0.0096283521572276,0.0047741264702797,0.0068805295714226,0.0019181995700137,0.5122811198234558,0.0,,,16.8529096729632,3.555673040978611e-15,0.0001338989257817,0.0,0.0001033813476567,0.0,28.0,3.555673040978611e-15,3.935717463247213,-0.7132504491541817,-0.7009092642998508,3.0,Other
2020-08-27 15:02:52.100000,3.026038469966755,-1.0170635516552282,0.3835019071318346,-4.449030833811328e-05,0.0001053765397549,0.0001380371841014,-0.0019257547529088,-0.0019257547529088,0.0017041097861557,0.0013410249414159,0.0051946653293638,0.0027615881482921,0.0105627147809541,0.0035524480442337,0.0043054595734859,0.0026788279635654,0.0026788279635654,0.0017046770156474,0.0097112494477951,0.0047564917400858,0.0069494213984066,0.0019185060970444,0.5122811198234558,0.0,,,16.8529096729632,3.555673040978611e-15,0.0001338989257817,0.0,0.0001033813476567,0.0,28.0,3.555673040978611e-15,3.935717463247213,-0.7132504491541817,-0.7009092642998508,3.0,Other
2020-08-27 15:02:53.100000,3.0260837813978783,-1.017195256498213,0.3835466680877815,5.327532232155023e-05,0.0001185406704499,0.0001628287671174,-0.001893750430641,-0.001893750430641,0.0017017112198764,0.001357816916387,0.0050779138348207,0.002692964510143,0.0105720364749487,0.0035391477220903,0.0042785048511677,0.0026959398185541,0.0026959398185541,0.0017031202642055,0.0097213666647472,0.0047516168093803,0.0069267685951841,0.0019208179061184,0.5122811198234558,0.0,,,16.8529096729632,3.555673040978611e-15,0.0001338989257817,0.0,0.0001033813476567,0.0,28.0,3.555673040978611e-15,3.935717463247213,-0.7132504491541817,-0.7009092642998508,3.0,Other
2020-08-27 15:02:54.100000,3.026146249644173,-1.0172774297822136,0.3836099479638796,3.03315739465054e-05,9.49897431456972e-05,0.0001678811177028,-0.0018862597706313,-0.0018862597706313,0.0017178562933116,0.0013976325653649,0.0050012013824154,0.002580466371682,0.010442666444876,0.0035414888853239,0.0042704788549789,0.0026812241090033,0.0026812241090033,0.0016897012393566,0.0096388156671036,0.0047372910483266,0.0068414175613218,0.0019064999126525,0.5122811198234558,0.0,,,16.8529096729632,3.555673040978611e-15,0.0001338989257817,0.0,0.0001033813476567,0.0,28.0,3.555673040978611e-15,3.935717463247213,-0.7132504491541817,-0.7009092642998508,3.0,Other
2020-08-27 15:02:55.100000,3.026222410297235,-1.0173607728445588,0.3836681292130427,-4.569473777108669e-05,5.664453824699755e-05,0.0001301988734617,-0.0018521023173498,-0.0018521023173498,0.0017342165286052,0.0015178052200079,0.0049319464737742,0.0024970575696409,0.0103503404264341,0.003536891457775,0.0042395871453341,0.0026996942917203,0.0026996942917203,0.0016941476572708,0.009558374180618,0.0047410986037045,0.0067912255809781,0.0019097907451839,0.5122811198234558,0.0,,,16.8529096729632,3.555673040978611e-15,0.0001338989257817,0.0,0.0001033813476567,0.0,28.0,3.555673040978611e-15,3.935717463247213,-0.7132504491541817,-0.7009092642998508,3.0,Other
2020-08-27 15:02:56.100000,3.026290304053841,-1.0174425270117062,0.3836952351442788,-5.3600781595644897e-05,3.424018447886819e-05,0.0001141570567365,-0.0018308494680137,-0.0018308494680137,0.0017553134984065,0.0015939516115752,0.0048446307369581,0.0024479104471412,0.0103239695339121,0.0034908850446547,0.0042209752002478,0.0027056830906513,0.0027056830906513,0.0016929081047498,0.0094936004235283,0.0047388064649012,0.0068062985256082,0.0019029115089183,0.5122811198234558,0.0,,,16.8529096729632,3.555673040978611e-15,0.0001338989257817,0.0,0.0001033813476567,0.0,28.0,3.555673040978611e-15,3.935717463247213,-0.7132504491541817,-0.7009092642998508,3.0,Other
2020-08-27 15:02:57.100000,3.026367539375673,-1.0175085840328362,0.3837217307477545,4.8262249994498775e-05,2.906573146035952e-05,0.0001208036277945,-0.001802700505082,-0.001802700505082,0.0017561277315739,0.0016737721497015,0.0047506157778421,0.0024035565153864,0.0102104646727736,0.0034881190760693,0.0042171148586218,0.002703347325042,0.002703347325042,0.0016688050090059,0.0094171797757093,0.0047242267803761,0.0067373094079167,0.0018834653715225,0.5122811198234558,0.0,,,16.8529096729632,3.555673040978611e-15,0.0001338989257817,0.0,0.0001033813476567,0.0,28.0,3.555673040978611e-15,3.935717463247213,-0.7132504491541817,-0.7009092642998508,3.0,Other
2020-08-27 15:02:58.100000,3.026422088435803,-1.017520665924085,0.3837234126698356,5.7416400886120056e-05,1.977954816054339e-05,0.0001040664323281,-0.0017595743875138,-0.0017595743875138,0.0017640073961901,0.0017792030979063,0.0047374086832065,0.0024006729504717,0.0102051366156192,0.003486042055959,0.0042320260274241,0.0027296713139252,0.0027296713139252,0.0016763930095204,0.0094263466491777,0.0047345700654668,0.0067244170190354,0.0018782607292263,0.5122811198234558,0.0,,,16.8529096729632,3.555673040978611e-15,0.0001338989257817,0.0,0.0001033813476567,0.0,28.0,3.555673040978611e-15,3.935717463247213,-0.7132504491541817,-0.7009092642998508,3.0,Other
2020-08-27 15:02:59.100000,3.0264911175567577,-1.017572766135814,0.3837104350725148,1.8004913769447505e-06,7.421649161866262e-06,9.576474531815584e-05,-0.0017257681156751,-0.0017257681156751,0.0017968609606763,0.0018910402709672,0.0046864346460942,0.0024177563198861,0.0101676364561962,0.0035029230061,0.0042234872846918,0.0027461893277686,0.0027461893277686,0.001682562649514,0.0094074300399755,0.0047438029476696,0.0066971001637624,0.0018787423394948,0.5122811198234558,0.0,,,16.8529096729632,3.555673040978611e-15,0.0001338989257817,0.0,0.0001033813476567,0.0,28.0,3.555673040978611e-15,3.935717463247213,-0.7132504491541817,-0.7009092642998508,3.0,Other
2020-08-27 15:03:00.100000,3.026573464398376,-1.0176366877040133,0.3836932274297549,3.132981537979308e-05,-5.486166374310989e-06,7.925353116803703e-05,-0.0016920414819891,-0.0016920414819891,0.0018247365951537,0.0020039701003618,0.0046345314533207,0.0024472261776045,0.0101157916289774,0.0035113147440109,0.0042230171703416,0.0027795211670813,0.0027795211670813,0.0016911737656086,0.0093598403988591,0.0047656781640532,0.0066893293500156,0.0018715618401548,0.5122811198234558,0.0,,,16.8529096729632,3.555673040978611e-15,0.0001338989257817,0.0,0.0001033813476567,0.0,28.0,3.555673040978611e-15,3.940080786377199,-0.7163019434246541,-0.6977904598416802,3.0,Other
